<?xml version='1.0'?><stations><station><slat>37.34997</slat><slong>-108.59236</slong><sname>Sinclair</sname><saddress>110 N. Broadway</saddress><scity>Cortez</scity><sstate>CO</sstate><sbrand>SINCLAIR</sbrand><soctane>86 88 91</soctane></station><station><slat>39.67568</slat><slong>-104.87276</slong><sname>Vickery Motorsports</sname><saddress>2231 S. Parker Rd.</saddress><scity>Denver</scity><sstate>CO</sstate><sbrand>VP</sbrand><soctane>93</soctane></station><station><slat>37.28398</slat><slong>-107.87681</slong><sname>Seven-Two-Eleven Food Store</sname><saddress>1854 Main Street</saddress><scity>Durango</scity><sstate>CO</sstate><sbrand>FINA</sbrand><soctane>86 88 91</soctane></station><station><slat>38.47741</slat><slong>-102.77643</slong><sname>Country C Store</sname><saddress>501 East 15th (Hwy 96)</saddress><scity>Eads</scity><sstate>CO</sstate><sbrand>UNBRANDED</sbrand><soctane>85 88 91</soctane></station><station><slat>38.47795</slat><slong>-102.78536</slong><sname>Eads Seed Store</sname><saddress>500 W 15th St</saddress><scity>Eads</scity><sstate>CO</sstate><sbrand>CENEX</sbrand><soctane>87 89 91</soctane></station><station><slat>39.63427</slat><slong>-105.00824</slong><sname>Pynergy Petroleum Formally Known As Duggan</sname><saddress>4495 South Santa  Fe Dr.</saddress><scity>Englewood</scity><sstate>CO</sstate><sbrand>CONOCO</sbrand><soctane>91</soctane></station><station><slat>40.08945</slat><slong>-104.81034</slong><sname>Tbg Service Company</sname><saddress>1042 Denver Ave</saddress><scity>Ft Lupton</scity><sstate>CO</sstate><sbrand>SINCLAIR</sbrand><soctane>88</soctane></station><station><slat>40.08484</slat><slong>-105.93124</slong><sname>Granby Mini Mart</sname><saddress>516 E Agate</saddress><scity>Granby</scity><sstate>CO</sstate><sbrand>UNKNOWN</sbrand><soctane>91</soctane></station><station><slat>39.69713</slat><slong>-105.12933</slong><sname>Brads Conoco</sname><saddress>1075 S.Union Blvd.</saddress><scity>Lakewood</scity><sstate>CO</sstate><sbrand>CONOCO</sbrand><soctane>91</soctane></station><station><slat>38.78081</slat><slong>-107.78167</slong><sname>Master Petroleum</sname><saddress>857 3100 Rd</saddress><scity>Lazear</scity><sstate>CO</sstate><sbrand>UNBRANDED</sbrand><soctane>85 87 91</soctane></station><station><slat>38.61133</slat><slong>-106.51268</slong><sname>Silver Plume General Store</sname><saddress>204 9th St</saddress><scity>Pitkin</scity><sstate>CO</sstate><sbrand>UNBRANDED</sbrand><soctane>91</soctane></station><station><slat>38.2881</slat><slong>-104.57561</slong><sname>Konvenience Corner</sname><saddress>1720 Constitution Road</saddress><scity>Pueblo</scity><sstate>CO</sstate><sbrand>FRONTIER</sbrand><soctane>86 87 91</soctane></station><station><slat>37.67082</slat><slong>-106.63988</slong><sname>Rainbow Express</sname><saddress>30359 U. S. Hwy 160</saddress><scity>South Fork</scity><sstate>CO</sstate><sbrand>CONOCO</sbrand><soctane></soctane></station><station><slat>37.16996</slat><slong>-104.51119</slong><sname>Konvenience Korner</sname><saddress>305 State St</saddress><scity>Trinidad</scity><sstate>CO</sstate><sbrand>SHAMROCK</sbrand><soctane>85 87 91</soctane></station></stations>