<?xml version='1.0'?><stations><station><slat>21.28632</slat><slong>-157.83945</slong><sname>Magic Island Petroleum -Aka The Fuel Dock</sname><saddress>1651 Ala Moana Blvd -In Ala Wai Boat Harbor</saddress><scity>Honolulu</scity><sstate>HI</sstate><sbrand>UNBRANDED</sbrand><soctane>89</soctane></station><station><slat>21.45786</slat><slong>-157.83803</slong><sname>Aloha 7-Eleven Kahaluu</sname><saddress>47-515 Kamehameha Hwy</saddress><scity>Kahaluu</scity><sstate>HI</sstate><sbrand>ALOHA</sbrand><soctane></soctane></station><station><slat>20.88649</slat><slong>-156.45283</slong><sname>Dairy Road Tesoro</sname><saddress>444 Kele St.</saddress><scity>Kahului</scity><sstate>HI</sstate><sbrand>TESORO</sbrand><soctane>89</soctane></station><station><slat>19.673</slat><slong>-156.0251</slong><sname>Honokohau Dockside</sname><saddress>Honokohau Harbor</saddress><scity>Kailua Kona</scity><sstate>HI</sstate><sbrand>UNBRANDED</sbrand><soctane>89</soctane></station><station><slat>19.67316</slat><slong>-156.01551</slong><sname>Queen K Tesoro</sname><saddress>74-5035 Queen Kaahumanu Hwy.</saddress><scity>Kailua Kona</scity><sstate>HI</sstate><sbrand>TESORO</sbrand><soctane>89</soctane></station><station><slat>21.41612</slat><slong>-157.80112</slong><sname>Kaneohe Shell Gas Station &amp; Food MartKaneohe Shell Food Mart</sname><saddress>45-1039 Kamehameha Highway</saddress><scity>Kaneohe</scity><sstate>HI</sstate><sbrand>SHELL</sbrand><soctane>89</soctane></station><station><slat>21.39331</slat><slong>-157.96837</slong><sname>Pearl City 76</sname><saddress>826 Kamehameha Hwy</saddress><scity>Pearl City</scity><sstate>HI</sstate><sbrand>UNION</sbrand><soctane>87 89</soctane></station><station><slat>21.36822</slat><slong>-158.13525</slong><sname>Aloha 7-Eleven Waianae Mauka</sname><saddress>85-830 Farrington Hwy</saddress><scity>Waianae</scity><sstate>HI</sstate><sbrand>ALOHA</sbrand><soctane></soctane></station></stations>