<?xml version='1.0'?><stations><station><slat>30.3615</slat><slong>-91.2611</slong><sname>Dick's Sporting Goods</sname><saddress>7280 La Hwy 1</saddress><scity>Addis</scity><sstate>LA</sstate><sbrand>UNBRANDED</sbrand><soctane>87 89 92</soctane></station><station><slat>31.29825</slat><slong>-92.48722</slong><sname>Super Sam's #3</sname><saddress>3912 Coliseum Blvd</saddress><scity>Alexandira</scity><sstate>LA</sstate><sbrand>CONOCO</sbrand><soctane>87</soctane></station><station><slat>31.2865</slat><slong>-92.4743</slong><sname>Big Sam's</sname><saddress>3417 Jackson St.</saddress><scity>Alexandria</scity><sstate>LA</sstate><sbrand>CONOCO</sbrand><soctane>87</soctane></station><station><slat>31.28775</slat><slong>-92.43952</slong><sname>Lesser Grocery</sname><saddress>2501 Broadway</saddress><scity>Alexandria</scity><sstate>LA</sstate><sbrand>UNBRANDED</sbrand><soctane>87 89</soctane></station><station><slat>29.91283</slat><slong>-90.00186</slong><sname>Cigarette Discount</sname><saddress>5101 Gen De Gaulle</saddress><scity>Algiers</scity><sstate>LA</sstate><sbrand>UNBRANDED</sbrand><soctane>87</soctane></station><station><slat>29.91283</slat><slong>-90.00186</slong><sname>Cigarette Discount</sname><saddress>5101 General Degaulle Ave.</saddress><scity>Algiers</scity><sstate>LA</sstate><sbrand>UNBRANDED</sbrand><soctane></soctane></station><station><slat>29.91284</slat><slong>-90.00185</slong><sname>Xtra Gas</sname><saddress>5101 General Degaulle</saddress><scity>Algiers</scity><sstate>LA</sstate><sbrand>UNBRANDED</sbrand><soctane>87 89 93</soctane></station><station><slat>31.25651</slat><slong>-93.34288</slong><sname>Conoco Convience</sname><saddress>5706 Hwy 171 N</saddress><scity>Anacoco</scity><sstate>LA</sstate><sbrand>CONOCO</sbrand><soctane>87 89</soctane></station><station><slat>30.96657</slat><slong>-89.80952</slong><sname>Terry's</sname><saddress>30262</saddress><scity>Angie</scity><sstate>LA</sstate><sbrand>UNBRANDED</sbrand><soctane></soctane></station><station><slat>30.3977</slat><slong>-91.93151</slong><sname>Guidry's Store</sname><saddress>null</saddress><scity>Arnaudville</scity><sstate>LA</sstate><sbrand>CONOCO</sbrand><soctane>87 89 91</soctane></station><station><slat>31.38812</slat><slong>-92.40753</slong><sname>Paradise Grocery</sname><saddress>Hwy. 165 N</saddress><scity>Ball</scity><sstate>LA</sstate><sbrand>CONOCO</sbrand><soctane>87 89</soctane></station><station><slat>30.87288</slat><slong>-91.67966</slong><sname>Ewings La Express</sname><saddress>6360 La Hwy 1</saddress><scity>Batchelor</scity><sstate>LA</sstate><sbrand>UNBRANDED</sbrand><soctane>87</soctane></station><station><slat>30.39212</slat><slong>-91.16096</slong><sname>Tiger Express</sname><saddress>300 Lee Drive</saddress><scity>Baton Rouge</scity><sstate>LA</sstate><sbrand>UNBRANDED</sbrand><soctane>87 93</soctane></station><station><slat>30.46096</slat><slong>-91.04497</slong><sname>Friendly Food Mart</sname><saddress>12617 Florida Blvd.</saddress><scity>Baton Rouge</scity><sstate>LA</sstate><sbrand>CONOCO</sbrand><soctane>87 89 92</soctane></station><station><slat>30.3915</slat><slong>-91.10668</slong><sname>Alex &amp; Allison Inc</sname><saddress>8100 Perkins Rd</saddress><scity>Baton Rouge</scity><sstate>LA</sstate><sbrand>UNBRANDED</sbrand><soctane>89 90 92</soctane></station><station><slat>30.41979</slat><slong>-91.07239</slong><sname>Ride Usa</sname><saddress>10174 Airline Hwy</saddress><scity>Baton Rouge</scity><sstate>LA</sstate><sbrand>UNBRANDED</sbrand><soctane>87 89 92</soctane></station><station><slat>30.3624</slat><slong>-91.0045</slong><sname>La Express</sname><saddress>16970 Jefferson Hwy</saddress><scity>Baton Rouge</scity><sstate>LA</sstate><sbrand>UNBRANDED</sbrand><soctane>87 93</soctane></station><station><slat>29.80609</slat><slong>-90.42929</slong><sname>Mr Jim's</sname><saddress>2801 Bayou Gauche Rd</saddress><scity>Bayou Gauche</scity><sstate>LA</sstate><sbrand>UNBRANDED</sbrand><soctane>87 90 93</soctane></station><station><slat>29.7462</slat><slong>-90.0214</slong><sname>Conoco/Fill-A-Sack Convenience Store</sname><saddress>12753 Highway 23</saddress><scity>Belle Chasse</scity><sstate>LA</sstate><sbrand>CONOCO</sbrand><soctane>87 89 91</soctane></station><station><slat>29.87593</slat><slong>-90.0144</slong><sname>State Oil</sname><saddress>7124 Highway 23</saddress><scity>Belle Chasse</scity><sstate>LA</sstate><sbrand>UNBRANDED</sbrand><soctane>93</soctane></station><station><slat>30.81209</slat><slong>-89.90098</slong><sname>Highway 10 One Stop (Aka Bridge Store Too)</sname><saddress>59269 Highway 10 West</saddress><scity>Bogalusa</scity><sstate>LA</sstate><sbrand>UNBRANDED</sbrand><soctane>87</soctane></station><station><slat>30.25889</slat><slong>-91.88937</slong><sname>Picard's Auto Parts</sname><saddress>3652 Main Hwy</saddress><scity>Breaux Bridge</scity><sstate>LA</sstate><sbrand>UNBRANDED</sbrand><soctane>87 89 93</soctane></station><station><slat>30.28136</slat><slong>-91.90211</slong><sname>Russell's Food Mart</sname><saddress>904 Rees St</saddress><scity>Breaux Bridge</scity><sstate>LA</sstate><sbrand>CONOCO</sbrand><soctane>87 89 92</soctane></station><station><slat>30.3966</slat><slong>-91.23776</slong><sname>J W Food Mart</sname><saddress>561 La Hwy 1</saddress><scity>Brusly</scity><sstate>LA</sstate><sbrand>UNBRANDED</sbrand><soctane>87 89 91</soctane></station><station><slat>31.07015</slat><slong>-93.48855</slong><sname>Country Corner</sname><saddress>Hwy 8</saddress><scity>Burr Ferry</scity><sstate>LA</sstate><sbrand>UNBRANDED</sbrand><soctane>87 89</soctane></station><station><slat>30.28161</slat><slong>-91.73266</slong><sname>Doucet's</sname><saddress>1724 Herman Dupuis Rd</saddress><scity>Butte Larose</scity><sstate>LA</sstate><sbrand>UNBRANDED</sbrand><soctane>87 91</soctane></station><station><slat>30.32175</slat><slong>-92.04253</slong><sname>No Name</sname><saddress>690 Veterans Dr</saddress><scity>Carencro</scity><sstate>LA</sstate><sbrand>UNBRANDED</sbrand><soctane>87 92</soctane></station><station><slat>30.55445</slat><slong>-91.03725</slong><sname>Central Automotive &amp; Tire</sname><saddress>11575 Sullivan Rd</saddress><scity>Central</scity><sstate>LA</sstate><sbrand>UNBRANDED</sbrand><soctane>87 89 91</soctane></station><station><slat>29.94269</slat><slong>-89.96354</slong><sname>Joggers Discount</sname><saddress>101 E. Judge Perez Dr.</saddress><scity>Chalmette</scity><sstate>LA</sstate><sbrand>UNBRANDED</sbrand><soctane>87 89 93</soctane></station><station><slat>29.93765</slat><slong>-89.92902</slong><sname>Meraux Food Store</sname><saddress>3225 East Judge Perez Drive</saddress><scity>Chalmette</scity><sstate>LA</sstate><sbrand>UNBRANDED</sbrand><soctane></soctane></station><station><slat>29.95149</slat><slong>-89.95933</slong><sname>Ponstein's Food Store</sname><saddress>3523 Paris Rd</saddress><scity>Chalmette</scity><sstate>LA</sstate><sbrand>UNBRANDED</sbrand><soctane></soctane></station><station><slat>29.30765</slat><slong>-90.6474</slong><sname>Cecil Lapeyrouse Grocxery</sname><saddress>7243 Shoreline Drive</saddress><scity>Chauvin</scity><sstate>LA</sstate><sbrand>UNBRANDED</sbrand><soctane></soctane></station><station><slat>29.27963</slat><slong>-90.6442</slong><sname>Tradewinds Marina &amp; Lodge</sname><saddress>7681 Hwy 56</saddress><scity>Cocodrie</scity><sstate>LA</sstate><sbrand>UNBRANDED</sbrand><soctane>87 93</soctane></station><station><slat>32.11647</slat><slong>-92.07061</slong><sname>Rider's Eastside</sname><saddress>1040 Davis Lake Rd</saddress><scity>Columbia</scity><sstate>LA</sstate><sbrand>UNBRANDED</sbrand><soctane>87 89 91</soctane></station><station><slat>30.06837</slat><slong>-90.86952</slong><sname>Hymel's Gas</sname><saddress>8740 La 44</saddress><scity>Convent</scity><sstate>LA</sstate><sbrand>UNBRANDED</sbrand><soctane>85 87</soctane></station><station><slat>30.52613</slat><slong>-90.127</slong><sname>Ramsey Grocery &amp; Bait</sname><saddress>75273 Hwy 25</saddress><scity>Covington</scity><sstate>LA</sstate><sbrand>UNBRANDED</sbrand><soctane>87</soctane></station><station><slat>30.48207</slat><slong>-90.06706</slong><sname>T 's Gas-N-Go Deli</sname><saddress>20260 Highway 36</saddress><scity>Covington</scity><sstate>LA</sstate><sbrand>UNBRANDED</sbrand><soctane>87</soctane></station><station><slat>30.52593</slat><slong>-90.08971</slong><sname>Spell's Grocery</sname><saddress>75209 Highway 437</saddress><scity>Covington</scity><sstate>LA</sstate><sbrand>UNBRANDED</sbrand><soctane>87 89 91</soctane></station><station><slat>30.58247</slat><slong>-90.07565</slong><sname>Todd's Country Corner</sname><saddress>79056 Highway 40</saddress><scity>Covington</scity><sstate>LA</sstate><sbrand>UNBRANDED</sbrand><soctane>87 89 91</soctane></station><station><slat>30.2139</slat><slong>-92.3643</slong><sname>Express 90</sname><saddress>726 E. 2nd Street</saddress><scity>Crowley</scity><sstate>LA</sstate><sbrand>UNKNOWN</sbrand><soctane>87 89 93</soctane></station><station><slat>29.47857</slat><slong>-90.33018</slong><sname>First Cast Bait &amp; Deli</sname><saddress>16174 Highway 3235</saddress><scity>Cut Off</scity><sstate>LA</sstate><sbrand>UNBRANDED</sbrand><soctane></soctane></station><station><slat>30.32827</slat><slong>-90.82616</slong><sname>Landry's Market</sname><saddress>21470 La. Hwy. 16</saddress><scity>Denham Springs</scity><sstate>LA</sstate><sbrand>UNBRANDED</sbrand><soctane>87 89 91</soctane></station><station><slat>30.46422</slat><slong>-90.9818</slong><sname>Baba's #2</sname><saddress>2454 Florida Blvd. (Hwy 190)</saddress><scity>Denham Springs</scity><sstate>LA</sstate><sbrand>UNBRANDED</sbrand><soctane>87</soctane></station><station><slat>30.37007</slat><slong>-90.84836</slong><sname>Parker's Supermarket</sname><saddress>20009 Walker South Road</saddress><scity>Denham Springs</scity><sstate>LA</sstate><sbrand>UNBRANDED</sbrand><soctane></soctane></station><station><slat>30.50312</slat><slong>-90.95647</slong><sname>Landry's Deli</sname><saddress>21470 Hwy 16</saddress><scity>Denham Springs</scity><sstate>LA</sstate><sbrand>UNBRANDED</sbrand><soctane>87 89 93</soctane></station><station><slat>32.50966</slat><slong>-93.40115</slong><sname>Princeton General Store</sname><saddress>1166 Hwy 163</saddress><scity>Doyline</scity><sstate>LA</sstate><sbrand>UNBRANDED</sbrand><soctane>87</soctane></station><station><slat>30.1592</slat><slong>-92.16485</slong><sname>Ridge Grocery</sname><saddress>Full-Screen 815 Golden Grain Road</saddress><scity>Duson</scity><sstate>LA</sstate><sbrand>UNBRANDED</sbrand><soctane>89 93</soctane></station><station><slat>30.15899</slat><slong>-92.16484</slong><sname>Ridge Grocery</sname><saddress>815 Golden Grain Road</saddress><scity>Duson</scity><sstate>LA</sstate><sbrand>UNBRANDED</sbrand><soctane>87 92</soctane></station><station><slat>30.53448</slat><slong>-91.411</slong><sname>La Express</sname><saddress>12610 U.S. 190</saddress><scity>Erwinville</scity><sstate>LA</sstate><sbrand>UNBRANDED</sbrand><soctane>87 89</soctane></station><station><slat>30.4949</slat><slong>-92.42046</slong><sname>Turners Downtown Conoco</sname><saddress>550 W. Laurel</saddress><scity>Eunice</scity><sstate>LA</sstate><sbrand>UNBRANDED</sbrand><soctane></soctane></station><station><slat>30.48756</slat><slong>-92.4156</slong><sname>Brownie's Shop Rite</sname><saddress>150 W. Maple Av.</saddress><scity>Eunice</scity><sstate>LA</sstate><sbrand>UNBRANDED</sbrand><soctane>87</soctane></station><station><slat>30.4949</slat><slong>-92.41987</slong><sname>Reed Gaskard 24</sname><saddress>500 West Laurel</saddress><scity>Eunice</scity><sstate>LA</sstate><sbrand>UNBRANDED</sbrand><soctane>87 89 93</soctane></station><station><slat>30.24904</slat><slong>-92.58421</slong><sname>Gottson Oil</sname><saddress>2035 Evangeline Hwy</saddress><scity>Evangeline</scity><sstate>LA</sstate><sbrand>UNBRANDED</sbrand><soctane></soctane></station><station><slat>30.62795</slat><slong>-90.18695</slong><sname>Bernie's</sname><saddress>82274 La Hwy 25</saddress><scity>Folsom</scity><sstate>LA</sstate><sbrand>UNBRANDED</sbrand><soctane>87 89 92</soctane></station><station><slat>30.84843</slat><slong>-90.1595</slong><sname>Seal's Auto Service</sname><saddress>936 Cleveland St.</saddress><scity>Franklinton</scity><sstate>LA</sstate><sbrand>UNBRANDED</sbrand><soctane>87 89</soctane></station><station><slat>29.47013</slat><slong>-90.31291</slong><sname>Renovations Inc.</sname><saddress>16815 E Main St</saddress><scity>Galliano</scity><sstate>LA</sstate><sbrand>UNBRANDED</sbrand><soctane>85</soctane></station><station><slat>30.26192</slat><slong>-90.89343</slong><sname>D &amp; J's Grocery</sname><saddress>42341 Black Bayou Road</saddress><scity>Gonzales</scity><sstate>LA</sstate><sbrand>EXXON</sbrand><soctane></soctane></station><station><slat>30.21236</slat><slong>-90.88153</slong><sname>Rendes</sname><saddress>10032 Airline Hwy</saddress><scity>Gonzales / Brittany</scity><sstate>LA</sstate><sbrand>UNBRANDED</sbrand><soctane>87</soctane></station><station><slat>30.07379</slat><slong>-90.6795</slong><sname>Stump's</sname><saddress>220 Airline Highway</saddress><scity>Gramercy</scity><sstate>LA</sstate><sbrand>TEXACO</sbrand><soctane>87 89 91</soctane></station><station><slat>29.20744</slat><slong>-90.05551</slong><sname>Bridgeside Marina</sname><saddress>1618 Highway 1</saddress><scity>Grand Isle</scity><sstate>LA</sstate><sbrand>UNBRANDED</sbrand><soctane></soctane></station><station><slat>32.05043</slat><slong>-92.10882</slong><sname>Village Grocery</sname><saddress>9097 Hwy 165</saddress><scity>Grayson</scity><sstate>LA</sstate><sbrand>UNBRANDED</sbrand><soctane>87 89 91</soctane></station><station><slat>29.89881</slat><slong>-90.04479</slong><sname>Star Cafe</sname><saddress>2950 Belle Chasse Hwy (Hwy 23)</saddress><scity>Gretna</scity><sstate>LA</sstate><sbrand>UNBRANDED</sbrand><soctane>87 89 93</soctane></station><station><slat>29.88194</slat><slong>-90.02899</slong><sname>Nathan's Discount Mart</sname><saddress>401  Lapalco Blvd</saddress><scity>Gretna</scity><sstate>LA</sstate><sbrand>UNBRANDED</sbrand><soctane>87 89 93</soctane></station><station><slat>29.99588</slat><slong>-93.35171</slong><sname>Browns Food Center</sname><saddress>620 Main Street</saddress><scity>Hackberry</scity><sstate>LA</sstate><sbrand>CONOCO</sbrand><soctane>87 89 93</soctane></station><station><slat>30.51905</slat><slong>-90.46894</slong><sname>Rendes Quick Stop</sname><saddress>306 W. University Ave</saddress><scity>Hammond</scity><sstate>LA</sstate><sbrand>UNBRANDED</sbrand><soctane>87 90 93</soctane></station><station><slat>30.48429</slat><slong>-90.44829</slong><sname>Ryans Deli &amp; Convenience Store</sname><saddress>43195 S Range Rd</saddress><scity>Hammond</scity><sstate>LA</sstate><sbrand>UNBRANDED</sbrand><soctane></soctane></station><station><slat>30.48429</slat><slong>-90.44829</slong><sname>Ryans Deli</sname><saddress>43195 South Range Road</saddress><scity>Hammond</scity><sstate>LA</sstate><sbrand>UNBRANDED</sbrand><soctane>87 89 93</soctane></station><station><slat>29.93868</slat><slong>-90.19384</slong><sname>Harahan Cheap Smokes</sname><saddress>6492 Jefferson Highway</saddress><scity>Harahan</scity><sstate>LA</sstate><sbrand>UNBRANDED</sbrand><soctane>87</soctane></station><station><slat>29.93883</slat><slong>-90.19426</slong><sname>Charlie's Auto Repair</sname><saddress>6515 Jefferson Highway</saddress><scity>Harahan</scity><sstate>LA</sstate><sbrand>UNBRANDED</sbrand><soctane></soctane></station><station><slat>29.93675</slat><slong>-90.19743</slong><sname>Pure</sname><saddress>6901 Jefferson Hwy</saddress><scity>Harahan</scity><sstate>LA</sstate><sbrand>UNBRANDED</sbrand><soctane></soctane></station><station><slat>32.42596</slat><slong>-93.50707</slong><sname>Four Way Country Store</sname><saddress>3812 Hwy 527</saddress><scity>Haughton</scity><sstate>LA</sstate><sbrand>UNBRANDED</sbrand><soctane>87 89 92</soctane></station><station><slat>30.11167</slat><slong>-92.9311</slong><sname>Belins Grocery &amp; Bait</sname><saddress>7595 Highway 14 East</saddress><scity>Hayes</scity><sstate>LA</sstate><sbrand>UNBRANDED</sbrand><soctane>87</soctane></station><station><slat>30.47726</slat><slong>-90.64309</slong><sname>L&amp;W One Stop</sname><saddress>28316 Hwy 441</saddress><scity>Holden</scity><sstate>LA</sstate><sbrand>UNBRANDED</sbrand><soctane>87 89 93</soctane></station><station><slat>31.38771</slat><slong>-92.23621</slong><sname>Holloway General</sname><saddress>12749 Hwy 28 East</saddress><scity>Holloway</scity><sstate>LA</sstate><sbrand>UNBRANDED</sbrand><soctane>87 89 93</soctane></station><station><slat>29.58674</slat><slong>-90.66842</slong><sname>J &amp; N Truck Stop</sname><saddress>9706 E Main Street</saddress><scity>Houma</scity><sstate>LA</sstate><sbrand>CONOCO</sbrand><soctane>87 89 93</soctane></station><station><slat>29.58044</slat><slong>-90.69224</slong><sname>Nocko's</sname><saddress>1036 Grand Caillou Rd.</saddress><scity>Houma</scity><sstate>LA</sstate><sbrand>UNBRANDED</sbrand><soctane>87 89 91</soctane></station><station><slat>29.60226</slat><slong>-90.71584</slong><sname>Main Conoco</sname><saddress>191 New Orleans Blvd</saddress><scity>Houma</scity><sstate>LA</sstate><sbrand>CONOCO</sbrand><soctane></soctane></station><station><slat>29.59637</slat><slong>-90.71926</slong><sname>Lavis Conoco Center</sname><saddress>318 Barrow St</saddress><scity>Houma</scity><sstate>LA</sstate><sbrand>CONOCO</sbrand><soctane>87 89 91</soctane></station><station><slat>29.58448</slat><slong>-90.72664</slong><sname>Jubilee Express</sname><saddress>Corner Of Highway 311 And Lafayette Street</saddress><scity>Houma</scity><sstate>LA</sstate><sbrand>UNBRANDED</sbrand><soctane></soctane></station><station><slat>30.64487</slat><slong>-90.50393</slong><sname>Black Cat Grocery</sname><saddress>51555 Highway 51</saddress><scity>Independence</scity><sstate>LA</sstate><sbrand>UNBRANDED</sbrand><soctane>87 89 92</soctane></station><station><slat>30.22275</slat><slong>-92.65493</slong><sname>The Corner Store</sname><saddress>314 North Cutting Avenue</saddress><scity>Jennings</scity><sstate>LA</sstate><sbrand>PHILLIPS</sbrand><soctane>87 89 93</soctane></station><station><slat>30.21768</slat><slong>-92.6591</slong><sname>Caps Quick Stop</sname><saddress>407 South Main Street</saddress><scity>Jennings</scity><sstate>LA</sstate><sbrand>UNBRANDED</sbrand><soctane>87 89 93</soctane></station><station><slat>30.22259</slat><slong>-92.66251</slong><sname>Daigles Phillips 66</sname><saddress>415 West Plaquemine Street</saddress><scity>Jennings</scity><sstate>LA</sstate><sbrand>PHILLIPS</sbrand><soctane>87 89 93</soctane></station><station><slat>30.23159</slat><slong>-92.65805</slong><sname>Buddys Service Station</sname><saddress>.103 Shankland</saddress><scity>Jennings</scity><sstate>LA</sstate><sbrand>UNBRANDED</sbrand><soctane>87 89 93</soctane></station><station><slat>30.23158</slat><slong>-92.66026</slong><sname>Hobo Parkview</sname><saddress>302 Shankland Avenue</saddress><scity>Jennings</scity><sstate>LA</sstate><sbrand>CONOCO</sbrand><soctane>87 89 93</soctane></station><station><slat>29.99144</slat><slong>-92.22462</slong><sname>Nunez Quick Stop</sname><saddress>15107 Veterans Memorial Drive</saddress><scity>Kaplan</scity><sstate>LA</sstate><sbrand>UNBRANDED</sbrand><soctane>87 89 91</soctane></station><station><slat>32.33981</slat><slong>-93.89438</slong><sname>The Derrick At Keithville</sname><saddress>6780 Colquitt Road</saddress><scity>Keithville</scity><sstate>LA</sstate><sbrand>UNBRANDED</sbrand><soctane>87 89 93</soctane></station><station><slat>32.33981</slat><slong>-93.89438</slong><sname>Derrick</sname><saddress>6780 Colquitt Rd.</saddress><scity>Keithville</scity><sstate>LA</sstate><sbrand>UNBRANDED</sbrand><soctane>87</soctane></station><station><slat>29.99277</slat><slong>-90.24169</slong><sname>Star Gas</sname><saddress>2023-2025 Williams Blvd</saddress><scity>Kenner</scity><sstate>LA</sstate><sbrand>UNBRANDED</sbrand><soctane>87 89 93</soctane></station><station><slat>32.42592</slat><slong>-93.45573</slong><sname>Downtown Koran Store</sname><saddress>Hwy. 527</saddress><scity>Koran</scity><sstate>LA</sstate><sbrand>UNBRANDED</sbrand><soctane>87 89 93</soctane></station><station><slat>30.23158</slat><slong>-92.92897</slong><sname>Lacassine Fuel Station</sname><saddress>14100 Highway 101</saddress><scity>Lacassine</scity><sstate>LA</sstate><sbrand>UNBRANDED</sbrand><soctane>87 89 93</soctane></station><station><slat>30.31204</slat><slong>-89.94012</slong><sname>Bashab Express</sname><saddress>28082 Highway 190</saddress><scity>Lacombe</scity><sstate>LA</sstate><sbrand>UNBRANDED</sbrand><soctane>87</soctane></station><station><slat>30.31733</slat><slong>-89.93143</slong><sname>Bayou Stop</sname><saddress>Hwy 90 East Of Hwy 434</saddress><scity>Lacombe</scity><sstate>LA</sstate><sbrand>UNBRANDED</sbrand><soctane>87 89 93</soctane></station><station><slat>30.1812</slat><slong>-92.10003</slong><sname>Pepin's</sname><saddress>601 Ridge Road</saddress><scity>Lafayette</scity><sstate>LA</sstate><sbrand>UNBRANDED</sbrand><soctane>87</soctane></station><station><slat>30.22996</slat><slong>-92.0149</slong><sname>Pumpelly Oil Inc</sname><saddress>115 E Second St</saddress><scity>Lafayette</scity><sstate>LA</sstate><sbrand>CONOCO</sbrand><soctane>87 89 93</soctane></station><station><slat>30.08194</slat><slong>-92.67185</slong><sname>K&amp;S Quick Stop</sname><saddress>316 Calcasieu Ave</saddress><scity>Lake Arthur</scity><sstate>LA</sstate><sbrand>UNBRANDED</sbrand><soctane></soctane></station><station><slat>30.16877</slat><slong>-93.25795</slong><sname>Shop Rite</sname><saddress>2400 Country Club Rd</saddress><scity>Lake Charles</scity><sstate>LA</sstate><sbrand>CONOCO</sbrand><soctane>87 89 93</soctane></station><station><slat>30.37352</slat><slong>-93.20071</slong><sname>Gillis Grocery</sname><saddress>4199 N Highway 171</saddress><scity>Lake Charles</scity><sstate>LA</sstate><sbrand>EXXON</sbrand><soctane>87 89 91</soctane></station><station><slat>30.30587</slat><slong>-93.19572</slong><sname>Bronco Discounts</sname><saddress>393 N Hwy 171</saddress><scity>Lake Charles</scity><sstate>LA</sstate><sbrand>PHILLIPS</sbrand><soctane>87 89 93</soctane></station><station><slat>30.20555</slat><slong>-93.2255</slong><sname>Shop-A-Lot</sname><saddress>2707 Hazel St.</saddress><scity>Lake Charles</scity><sstate>LA</sstate><sbrand>UNBRANDED</sbrand><soctane>87</soctane></station><station><slat>30.15814</slat><slong>-93.21379</slong><sname>Jimbo's Quick Stop</sname><saddress>5402 Common St.</saddress><scity>Lake Charles</scity><sstate>LA</sstate><sbrand>CONOCO</sbrand><soctane>87 89 93</soctane></station><station><slat>30.30587</slat><slong>-93.19572</slong><sname>Bronco Stop</sname><saddress>393 N Highway 171</saddress><scity>Lake Charles</scity><sstate>LA</sstate><sbrand>PHILLIPS</sbrand><soctane>87 89 91</soctane></station><station><slat>49.05698</slat><slong>-94.94227</slong><sname>Lake Street Conoco</sname><saddress>Lake St. &amp; 18th St.</saddress><scity>Lake Charles</scity><sstate>LA</sstate><sbrand>CONOCO</sbrand><soctane>87 89 93</soctane></station><station><slat>30.066</slat><slong>-93.21313</slong><sname>Gaspard's Fast Stop</sname><saddress>9346 Gulf Hwy</saddress><scity>Lake Charles</scity><sstate>LA</sstate><sbrand>UNBRANDED</sbrand><soctane>87 89 92</soctane></station><station><slat>30.18933</slat><slong>-93.26614</slong><sname>Park Side Convenience Store</sname><saddress>3721 West Prien Lake Road</saddress><scity>Lake Charles</scity><sstate>LA</sstate><sbrand>UNBRANDED</sbrand><soctane>87 89 91</soctane></station><station><slat>30.16848</slat><slong>-93.28299</slong><sname>Cormie's Grocery</sname><saddress>4907 Big Lake Road</saddress><scity>Lake Charles</scity><sstate>LA</sstate><sbrand>CONOCO</sbrand><soctane>87 91 93</soctane></station><station><slat>30.06226</slat><slong>-90.47404</slong><sname>Keatings Gas Station</sname><saddress>398 E Airline Hwy</saddress><scity>Laplace</scity><sstate>LA</sstate><sbrand>UNBRANDED</sbrand><soctane></soctane></station><station><slat>30.07895</slat><slong>-92.19196</slong><sname>Breaux's Grocery</sname><saddress>12997 Highway 699</saddress><scity>Leroy</scity><sstate>LA</sstate><sbrand>UNBRANDED</sbrand><soctane>87</soctane></station><station><slat>30.55799</slat><slong>-90.82805</slong><sname>Gene's Little Store</sname><saddress>29510 S Frost Road</saddress><scity>Livingston</scity><sstate>LA</sstate><sbrand>UNBRANDED</sbrand><soctane></soctane></station><station><slat>30.40548</slat><slong>-90.14565</slong><sname>Madisonville Auto</sname><saddress>201 Highway 22</saddress><scity>Madisonville</scity><sstate>LA</sstate><sbrand>UNBRANDED</sbrand><soctane></soctane></station><station><slat>30.63246</slat><slong>-92.41955</slong><sname>Mamou Canal</sname><saddress>621 6th St.</saddress><scity>Mamou</scity><sstate>LA</sstate><sbrand>UNBRANDED</sbrand><soctane>87</soctane></station><station><slat>29.89596</slat><slong>-90.09187</slong><sname>Quicky's Discount</sname><saddress>4102 West Bank Expressway</saddress><scity>Marrero</scity><sstate>LA</sstate><sbrand>UNBRANDED</sbrand><soctane>87 89 93</soctane></station><station><slat>30.08611</slat><slong>-92.1246</slong><sname>Dale's Grocery &amp; Tackel</sname><saddress>Highway 167</saddress><scity>Maurice</scity><sstate>LA</sstate><sbrand>UNBRANDED</sbrand><soctane>87 89 92</soctane></station><station><slat>29.97783</slat><slong>-90.21087</slong><sname>Exxon Convenience Store</sname><saddress>David Drive And Airline  Drive</saddress><scity>Metairie</scity><sstate>LA</sstate><sbrand>EXXON</sbrand><soctane></soctane></station><station><slat>29.98409</slat><slong>-90.15285</slong><sname>Kiwi Serve</sname><saddress>2525 West Metairie Ave. @ Rooservelt</saddress><scity>Metairie</scity><sstate>LA</sstate><sbrand>UNBRANDED</sbrand><soctane>89</soctane></station><station><slat>30.0178</slat><slong>-90.19871</slong><sname>Murphy Discount</sname><saddress>4431 Transcontential Drive</saddress><scity>Metairie</scity><sstate>LA</sstate><sbrand>UNBRANDED</sbrand><soctane></soctane></station><station><slat>32.52745</slat><slong>-92.03787</slong><sname>Lakeshore Texaco</sname><saddress>8101 Desiard</saddress><scity>Monroe</scity><sstate>LA</sstate><sbrand>TEXACO</sbrand><soctane></soctane></station><station><slat>29.63229</slat><slong>-89.95182</slong><sname>Myrtle Grove Marina</sname><saddress>Myrtle Grove Marina - Myrtle Grove</saddress><scity>Myrtle Grove</scity><sstate>LA</sstate><sbrand>UNBRANDED</sbrand><soctane></soctane></station><station><slat>31.71546</slat><slong>-93.2035</slong><sname>Ez Serve</sname><saddress>6464 Louisiana 6</saddress><scity>Natchitoches</scity><sstate>LA</sstate><sbrand>UNBRANDED</sbrand><soctane>87</soctane></station><station><slat>30.00253</slat><slong>-91.8173</slong><sname>Pop &amp; Fuel</sname><saddress>204 Center Street</saddress><scity>New Iberia</scity><sstate>LA</sstate><sbrand>UNBRANDED</sbrand><soctane>87</soctane></station><station><slat>29.9758</slat><slong>-90.0788</slong><sname>Magnolia Discount</sname><saddress>1233 North Broad Street</saddress><scity>New Orleans</scity><sstate>LA</sstate><sbrand>UNBRANDED</sbrand><soctane></soctane></station><station><slat>30.06496</slat><slong>-89.81378</slong><sname>Bayou Bar And Grill</sname><saddress>20824 Chef Menteur Hwy.</saddress><scity>New Orleans</scity><sstate>LA</sstate><sbrand>UNBRANDED</sbrand><soctane></soctane></station><station><slat>30.0057</slat><slong>-90.11786</slong><sname>Fleur De Lis Car Care</sname><saddress>247 W. Harrison Ave</saddress><scity>New Orleans</scity><sstate>LA</sstate><sbrand>UNBRANDED</sbrand><soctane>87 89 91</soctane></station><station><slat>29.99771</slat><slong>-90.41605</slong><sname>Kart N Karry</sname><saddress>10 West B. Street</saddress><scity>Norco</scity><sstate>LA</sstate><sbrand>UNBRANDED</sbrand><soctane>87</soctane></station><station><slat>31.53623</slat><slong>-92.1421</slong><sname>Mcbroom's 165 Service</sname><saddress>4245 Highway 165 S</saddress><scity>Olla</scity><sstate>LA</sstate><sbrand>UNBRANDED</sbrand><soctane>87 89 91</soctane></station><station><slat>30.29411</slat><slong>-92.33753</slong><sname>Singh Quick Stop</sname><saddress>547 Country Ridge Road</saddress><scity>Opelousas</scity><sstate>LA</sstate><sbrand>UNBRANDED</sbrand><soctane>87 89 91</soctane></station><station><slat>30.53231</slat><slong>-92.07777</slong><sname>Tiger Stop</sname><saddress>528 E. Landry</saddress><scity>Opelousas</scity><sstate>LA</sstate><sbrand>UNBRANDED</sbrand><soctane>87 89 92</soctane></station><station><slat>30.53358</slat><slong>-92.09515</slong><sname>Tiger Stop 7</sname><saddress>1118 W. Vine</saddress><scity>Opelousas</scity><sstate>LA</sstate><sbrand>UNBRANDED</sbrand><soctane>85</soctane></station><station><slat>30.5865</slat><slong>-92.0696</slong><sname>Nuba Fast Foods</sname><saddress>La 182 &amp; Us 167</saddress><scity>Opelousas</scity><sstate>LA</sstate><sbrand>UNBRANDED</sbrand><soctane>87</soctane></station><station><slat>30.53266</slat><slong>-92.12829</slong><sname>Reed Gaskard 24</sname><saddress>3304 West Landry</saddress><scity>Opelousas</scity><sstate>LA</sstate><sbrand>UNBRANDED</sbrand><soctane>87 89 93</soctane></station><station><slat>29.67904</slat><slong>-91.27853</slong><sname>Wag-N-Pack</sname><saddress>518 Highway 90</saddress><scity>Patterson</scity><sstate>LA</sstate><sbrand>CONOCO</sbrand><soctane>87 89 92</soctane></station><station><slat>30.04119</slat><slong>-90.74808</slong><sname>Grand Point Grand Truck Stop</sname><saddress>3415 La. 3125</saddress><scity>Paulina</scity><sstate>LA</sstate><sbrand>UNBRANDED</sbrand><soctane></soctane></station><station><slat>30.39015</slat><slong>-89.76023</slong><sname>Friendly Fred's</sname><saddress>66182 Hwy 41</saddress><scity>Pearl River</scity><sstate>LA</sstate><sbrand>UNBRANDED</sbrand><soctane>87</soctane></station><station><slat>30.37618</slat><slong>-89.74781</slong><sname>Happy Jack's Country Store</sname><saddress>39422 Hwy 41 Spur</saddress><scity>Pearl River</scity><sstate>LA</sstate><sbrand>UNBRANDED</sbrand><soctane>87 92</soctane></station><station><slat>31.38771</slat><slong>-92.23621</slong><sname>Holloway General Store</sname><saddress>12749 Hwy 28 East</saddress><scity>Pineville</scity><sstate>LA</sstate><sbrand>UNBRANDED</sbrand><soctane>87 89 93</soctane></station><station><slat>31.31918</slat><slong>-92.42984</slong><sname>Pineville Fast Stop</sname><saddress>911 Melrose Street</saddress><scity>Pineville</scity><sstate>LA</sstate><sbrand>UNBRANDED</sbrand><soctane>87</soctane></station><station><slat>31.39809</slat><slong>-92.44238</slong><sname>Big Dub's Grocery</sname><saddress>5598 Old Shreveport Highway 71 N</saddress><scity>Pineville</scity><sstate>LA</sstate><sbrand>CONOCO</sbrand><soctane>87 91</soctane></station><station><slat>31.38056</slat><slong>-92.35141</slong><sname>Humphries &amp; Son Grocery</sname><saddress>6768 Esler Field Road</saddress><scity>Pineville</scity><sstate>LA</sstate><sbrand>UNBRANDED</sbrand><soctane>87</soctane></station><station><slat>30.29243</slat><slong>-91.23787</slong><sname>Dick's Sporting Goods</sname><saddress>23370 La Hwy 1</saddress><scity>Plaquemine</scity><sstate>LA</sstate><sbrand>UNBRANDED</sbrand><soctane>87 89 91</soctane></station><station><slat>30.22009</slat><slong>-91.31587</slong><sname>Jack Millers Landing</sname><saddress>65390 Belleview Dr.</saddress><scity>Plaquemine</scity><sstate>LA</sstate><sbrand>UNBRANDED</sbrand><soctane>87 89 93</soctane></station><station><slat>30.46555</slat><slong>-90.4138</slong><sname>4-Way Cash &amp; Dash</sname><saddress>19009 Sisters Road</saddress><scity>Ponchatoula</scity><sstate>LA</sstate><sbrand>UNBRANDED</sbrand><soctane>87 89 91</soctane></station><station><slat>30.44735</slat><slong>-91.24442</slong><sname>Nino's Truck Stop</sname><saddress>123 La Hwy 415</saddress><scity>Port Allen</scity><sstate>LA</sstate><sbrand>UNBRANDED</sbrand><soctane>87 89 91</soctane></station><station><slat>30.45494</slat><slong>-91.24783</slong><sname>Cash's Casino Truck Plaza</sname><saddress>420 La Hwy 415</saddress><scity>Port Allen</scity><sstate>LA</sstate><sbrand>UNBRANDED</sbrand><soctane>87 89 91</soctane></station><station><slat>30.28295</slat><slong>-90.98064</slong><sname>Village Market And Deli</sname><saddress>14448 Hwy 73</saddress><scity>Prairieville</scity><sstate>LA</sstate><sbrand>PHILLIPS</sbrand><soctane>87 89 93</soctane></station><station><slat>30.32303</slat><slong>-90.92256</slong><sname>Chip's #2</sname><saddress>15530 Highway 44</saddress><scity>Prairieville</scity><sstate>LA</sstate><sbrand>UNBRANDED</sbrand><soctane>87</soctane></station><station><slat>29.96357</slat><slong>-90.22386</slong><sname>River Ridge Pure</sname><saddress>10300 Jefferson Hwy.</saddress><scity>River Ridge</scity><sstate>LA</sstate><sbrand>PURE</sbrand><soctane>87 88 91</soctane></station><station><slat>30.23525</slat><slong>-92.74677</slong><sname>Roanoke Full Stop</sname><saddress>14010 Highway 395</saddress><scity>Roanoke</scity><sstate>LA</sstate><sbrand>PHILLIPS</sbrand><soctane>87 89 93</soctane></station><station><slat>30.22441</slat><slong>-90.85675</slong><sname>Triple S Grocery And Deli</sname><saddress>44429 La Hwy 429</saddress><scity>Saint Amant</scity><sstate>LA</sstate><sbrand>UNBRANDED</sbrand><soctane></soctane></station><station><slat>30.21882</slat><slong>-90.83818</slong><sname>Best Stop 17</sname><saddress>45434 La Hwy 22</saddress><scity>Saint Amant</scity><sstate>LA</sstate><sbrand>CONOCO</sbrand><soctane></soctane></station><station><slat>29.70467</slat><slong>-90.90935</slong><sname>Wilson's Kountry Korner</sname><saddress>2138 Bull Run Rd</saddress><scity>Schriever</scity><sstate>LA</sstate><sbrand>CONOCO</sbrand><soctane>87 89 93</soctane></station><station><slat>30.27572</slat><slong>-92.11247</slong><sname>Romero's Grocery</sname><saddress>1335 Hwy 93 N</saddress><scity>Scott</scity><sstate>LA</sstate><sbrand>UNBRANDED</sbrand><soctane>87</soctane></station><station><slat>30.22627</slat><slong>-92.08803</slong><sname>4 K's</sname><saddress>298 Westgate</saddress><scity>Scott</scity><sstate>LA</sstate><sbrand>FINA</sbrand><soctane>87 89 93</soctane></station><station><slat>30.26481</slat><slong>-89.78505</slong><sname>Acadia</sname><saddress>430 Pontchatrain Drive</saddress><scity>Slidell</scity><sstate>LA</sstate><sbrand>UNBRANDED</sbrand><soctane>87 89 93</soctane></station><station><slat>30.29145</slat><slong>-89.71976</slong><sname>Quick Serve</sname><saddress>100 S Military Rd</saddress><scity>Slidell</scity><sstate>LA</sstate><sbrand>UNBRANDED</sbrand><soctane>87 89 91</soctane></station><station><slat>30.26406</slat><slong>-89.78307</slong><sname>Quick Serve</sname><saddress>626 Old Spanish Trail</saddress><scity>Slidell</scity><sstate>LA</sstate><sbrand>UNBRANDED</sbrand><soctane>87 89 93</soctane></station><station><slat>30.25488</slat><slong>-89.78964</slong><sname>Redfish Trading Co</sname><saddress>3605 Pontchartrain Dr</saddress><scity>Slidell</scity><sstate>LA</sstate><sbrand>UNBRANDED</sbrand><soctane></soctane></station><station><slat>30.19147</slat><slong>-90.85528</slong><sname>R&amp;B Grocery</sname><saddress>9283 Airline Hwy</saddress><scity>Sorrento</scity><sstate>LA</sstate><sbrand>UNBRANDED</sbrand><soctane></soctane></station><station><slat>30.05431</slat><slong>-90.47506</slong><sname>Food Market</sname><saddress>101 Saint Roes Ave</saddress><scity>St Rose</scity><sstate>LA</sstate><sbrand>CONOCO</sbrand><soctane>87</soctane></station><station><slat>30.28457</slat><slong>-90.86744</slong><sname>Tureau's Grocery</sname><saddress>44463 Hwy 431</saddress><scity>St. Amant</scity><sstate>LA</sstate><sbrand>UNBRANDED</sbrand><soctane></soctane></station><station><slat>29.93042</slat><slong>-89.93361</slong><sname>Meraux Quickstop</sname><saddress>E St Bernard Hwy</saddress><scity>St. Bernard</scity><sstate>LA</sstate><sbrand>UNBRANDED</sbrand><soctane></soctane></station><station><slat>30.22086</slat><slong>-93.37627</slong><sname>Sulphur Food Mart</sname><saddress>1900 Ruth St</saddress><scity>Sulphur</scity><sstate>LA</sstate><sbrand>UNBRANDED</sbrand><soctane>87 89 93</soctane></station><station><slat>30.22086</slat><slong>-93.37627</slong><sname>Bayou Cajon</sname><saddress>1900 Ruth Street</saddress><scity>Sulphur</scity><sstate>LA</sstate><sbrand>UNBRANDED</sbrand><soctane>85 90 93</soctane></station><station><slat>32.40848</slat><slong>-91.18678</slong><sname>Mini Mart</sname><saddress>No Idea</saddress><scity>Tallulah</scity><sstate>LA</sstate><sbrand>CHEVRON</sbrand><soctane></soctane></station><station><slat>29.94978</slat><slong>-90.7072</slong><sname>Wag-A-Pak</sname><saddress>22971 Hwy. 20</saddress><scity>Vacherie</scity><sstate>LA</sstate><sbrand>CONOCO</sbrand><soctane></soctane></station><station><slat>31.57174</slat><slong>-91.44476</slong><sname>Jerry's The Store</sname><saddress>Us 84</saddress><scity>Vidalia</scity><sstate>LA</sstate><sbrand>JERRY'S</sbrand><soctane>87 89 91</soctane></station><station><slat>30.6839</slat><slong>-92.27362</slong><sname>Blue Junction</sname><saddress>3388 Chataignier Rd</saddress><scity>Ville Platte</scity><sstate>LA</sstate><sbrand>UNBRANDED</sbrand><soctane>87 93 94</soctane></station><station><slat>30.68218</slat><slong>-92.25954</slong><sname>H.L. Pitre &amp; Sons</sname><saddress>1538 E Main</saddress><scity>Ville Platte</scity><sstate>LA</sstate><sbrand>COASTAL</sbrand><soctane>87</soctane></station><station><slat>30.21593</slat><slong>-93.53645</slong><sname>Circle A Mini Mart</sname><saddress>1309 Hwy 90</saddress><scity>Vinton</scity><sstate>LA</sstate><sbrand>UNBRANDED</sbrand><soctane>87</soctane></station><station><slat>30.44413</slat><slong>-90.86085</slong><sname>Best Stop Quick Mart #3</sname><saddress>26213 Walker South Road</saddress><scity>Walker</scity><sstate>LA</sstate><sbrand>UNBRANDED</sbrand><soctane>87 89 93</soctane></station><station><slat>30.1356</slat><slong>-92.48591</slong><sname>Bubba's Bulk Distribution</sname><saddress>512 E. Russell</saddress><scity>Welsh</scity><sstate>LA</sstate><sbrand>UNBRANDED</sbrand><soctane>87 89 91</soctane></station><station><slat>30.23213</slat><slong>-92.81672</slong><sname>Ninety One Stop</sname><saddress>505 East Russel Street</saddress><scity>Welsh</scity><sstate>LA</sstate><sbrand>PHILLIPS</sbrand><soctane>87 89 93</soctane></station><station><slat>32.49509</slat><slong>-92.14699</slong><sname>Cole Oil (Self Serve)</sname><saddress>1557 Old Natchitoches Rd</saddress><scity>West Monroe</scity><sstate>LA</sstate><sbrand>UNBRANDED</sbrand><soctane>87</soctane></station><station><slat>32.53704</slat><slong>-92.16955</slong><sname>Good Hope Handy Mart</sname><saddress>1800 Arkansas Rd</saddress><scity>West Monroe</scity><sstate>LA</sstate><sbrand>PHILLIPS</sbrand><soctane>87 89 91</soctane></station><station><slat>30.27804</slat><slong>-93.24975</slong><sname>Rudy's Corner Store</sname><saddress>2945 Davis Road</saddress><scity>Westlake</scity><sstate>LA</sstate><sbrand>CONOCO</sbrand><soctane></soctane></station><station><slat>30.24751</slat><slong>-93.25805</slong><sname>Pumpelly Oil Co.</sname><saddress>1200 Sampson Street</saddress><scity>Westlake</scity><sstate>LA</sstate><sbrand>CONOCO</sbrand><soctane>87 89 91</soctane></station><station><slat>30.24751</slat><slong>-93.25805</slong><sname>Pumpelly Oil Co</sname><saddress>1200 Sampson Street1200 Sampson Street1200 Sampson Street</saddress><scity>Westlake</scity><sstate>LA</sstate><sbrand>CONOCO</sbrand><soctane>87 89 91</soctane></station><station><slat>32.17726</slat><slong>-91.72566</slong><sname>Ronnie's Trak</sname><saddress>7 Fair Avenue</saddress><scity>Winnsboro</scity><sstate>LA</sstate><sbrand>UNBRANDED</sbrand><soctane>89</soctane></station><station><slat>32.22556</slat><slong>-91.59209</slong><sname>Delta Fuel (Formerly D&amp;J)</sname><saddress>179 Highway 578</saddress><scity>Winnsboro</scity><sstate>LA</sstate><sbrand>UNBRANDED</sbrand><soctane>87 91</soctane></station><station><slat>30.10554</slat><slong>-92.03246</slong><sname>Stop 92</sname><saddress>3901 Verot School Road</saddress><scity>Youngsville</scity><sstate>LA</sstate><sbrand>UNBRANDED</sbrand><soctane>87 89 91</soctane></station></stations>