<?xml version='1.0'?><stations><station><slat>33.84857</slat><slong>-88.49203</slong><sname>Aberdeen Marina</sname><saddress>50185 Old Hwy. 25</saddress><scity>Aberdeen</scity><sstate>MS</sstate><sbrand>UNBRANDED</sbrand><soctane>89</soctane></station><station><slat>33.82474</slat><slong>-88.54071</slong><sname>Downtown Pure</sname><saddress>315 E Commerce St</saddress><scity>Aberdeen</scity><sstate>MS</sstate><sbrand>PURE</sbrand><soctane></soctane></station><station><slat>33.32082</slat><slong>-89.17646</slong><sname>Hook &amp; Bullet</sname><saddress>8944 Ms-12</saddress><scity>Ackerman</scity><sstate>MS</sstate><sbrand>UNBRANDED</sbrand><soctane>87</soctane></station><station><slat>33.32125</slat><slong>-89.17684</slong><sname>Cagles Corner</sname><saddress>8949 Ms-12</saddress><scity>Ackerman</scity><sstate>MS</sstate><sbrand>EXXON</sbrand><soctane>87 89 93</soctane></station><station><slat>33.98604</slat><slong>-88.46061</slong><sname>New Mart</sname><saddress>1414 Hatley Road</saddress><scity>Amory</scity><sstate>MS</sstate><sbrand>UNBRANDED</sbrand><soctane>87</soctane></station><station><slat>34.84746</slat><slong>-89.18451</slong><sname>Ashland Hardware</sname><saddress>15800 Boundary Drive</saddress><scity>Ashland</scity><sstate>MS</sstate><sbrand>BP</sbrand><soctane>87 89</soctane></station><station><slat>34.31163</slat><slong>-89.9485</slong><sname>Batesville Express #2</sname><saddress>250 Hwy 6 West</saddress><scity>Batesville</scity><sstate>MS</sstate><sbrand>UNBRANDED</sbrand><soctane>87</soctane></station><station><slat>30.32236</slat><slong>-89.38239</slong><sname>Bay Marina &amp; Rv Park</sname><saddress>100 Bay Marina Dr</saddress><scity>Bay St Louis</scity><sstate>MS</sstate><sbrand>UNBRANDED</sbrand><soctane></soctane></station><station><slat>30.26638</slat><slong>-89.44778</slong><sname>Kent &amp; Sues Quick Stop</sname><saddress>7126 Lower Bay Road</saddress><scity>Bay St Louis</scity><sstate>MS</sstate><sbrand>UNBRANDED</sbrand><soctane>87 89 93</soctane></station><station><slat>30.30353</slat><slong>-89.36201</slong><sname>Corner Market</sname><saddress>1139 Old Spanish Trail</saddress><scity>Bay St. Louis</scity><sstate>MS</sstate><sbrand>UNBRANDED</sbrand><soctane>87 89 91</soctane></station><station><slat>34.5183</slat><slong>-88.21431</slong><sname>Kirby's # 4</sname><saddress>459 North Second St.</saddress><scity>Belmont</scity><sstate>MS</sstate><sbrand>UNBRANDED</sbrand><soctane>92</soctane></station><station><slat>34.48759</slat><slong>-88.20692</slong><sname>Kirby's # 1</sname><saddress>200 South Second St.</saddress><scity>Belmont</scity><sstate>MS</sstate><sbrand>UNBRANDED</sbrand><soctane>87 92</soctane></station><station><slat>32.82715</slat><slong>-90.26016</slong><sname>Berry's Quick Stop</sname><saddress>1296 Old Hwy 16</saddress><scity>Benton</scity><sstate>MS</sstate><sbrand>UNBRANDED</sbrand><soctane>87</soctane></station><station><slat>32.8267</slat><slong>-90.2599</slong><sname>Berry's</sname><saddress>Old Highway 16</saddress><scity>Benton</scity><sstate>MS</sstate><sbrand>UNBRANDED</sbrand><soctane>87</soctane></station><station><slat>30.46901</slat><slong>-88.97075</slong><sname>Woolmarket Country Store</sname><saddress>12431 Hwy 67 (Off I-12 Exit 41)</saddress><scity>Biloxi</scity><sstate>MS</sstate><sbrand>UNBRANDED</sbrand><soctane></soctane></station><station><slat>30.44265</slat><slong>-88.93934</slong><sname>Polks Drugs Biloxi</sname><saddress>1845 Popps Ferry Rd</saddress><scity>Biloxi</scity><sstate>MS</sstate><sbrand>UNBRANDED</sbrand><soctane>87</soctane></station><station><slat>30.49527</slat><slong>-88.90587</slong><sname>Moses Highway 15 Grocery</sname><saddress>14310 Highway 15</saddress><scity>Biloxi</scity><sstate>MS</sstate><sbrand>PURE</sbrand><soctane>87 89 91</soctane></station><station><slat>30.46288</slat><slong>-88.96992</slong><sname>Texaco</sname><saddress>12202 Highway 67</saddress><scity>Biloxi</scity><sstate>MS</sstate><sbrand>UNBRANDED</sbrand><soctane>87</soctane></station><station><slat>30.40937</slat><slong>-89.09113</slong><sname>Waring Oil Co.</sname><saddress>12202 Hwy. 67</saddress><scity>Biloxi</scity><sstate>MS</sstate><sbrand>WARING</sbrand><soctane>87</soctane></station><station><slat>31.44098</slat><slong>-90.45789</slong><sname>Wallace Texaco</sname><saddress>2249 Highway 51</saddress><scity>Bogue Chitto</scity><sstate>MS</sstate><sbrand>TEXACO</sbrand><soctane>87</soctane></station><station><slat>34.64379</slat><slong>-88.57275</slong><sname>Burton One Stop</sname><saddress>1137 Hwy 30</saddress><scity>Booneville</scity><sstate>MS</sstate><sbrand>UNBRANDED</sbrand><soctane></soctane></station><station><slat>32.43273</slat><slong>-89.71385</slong><sname>Branch General Store</sname><saddress>6883 Hwy 481 N</saddress><scity>Branch</scity><sstate>MS</sstate><sbrand>UNBRANDED</sbrand><soctane>87</soctane></station><station><slat>32.33501</slat><slong>-89.7982</slong><sname>Lake Harbor Trading Post</sname><saddress>4018 Highway 43 North</saddress><scity>Brandon</scity><sstate>MS</sstate><sbrand>UNBRANDED</sbrand><soctane></soctane></station><station><slat>32.22569</slat><slong>-90.03111</slong><sname>Allens Supermarket</sname><saddress>766 Hwy 468</saddress><scity>Brandon</scity><sstate>MS</sstate><sbrand>UNBRANDED</sbrand><soctane>87</soctane></station><station><slat>32.46943</slat><slong>-89.84703</slong><sname>Pelahatchie Trading Post</sname><saddress>2363 Mississippi 471</saddress><scity>Brandon</scity><sstate>MS</sstate><sbrand>UNBRANDED</sbrand><soctane>87 89 92</soctane></station><station><slat>31.57965</slat><slong>-90.4423</slong><sname>Foster's</sname><saddress>East Monticello St.</saddress><scity>Brookhaven</scity><sstate>MS</sstate><sbrand>UNBRANDED</sbrand><soctane>87 89 93</soctane></station><station><slat>31.59935</slat><slong>-90.41702</slong><sname>R.B. Wall Oil Company</sname><saddress>1220 Hwy 51 Ne</saddress><scity>Brookhaven</scity><sstate>MS</sstate><sbrand>UNBRANDED</sbrand><soctane>87 93</soctane></station><station><slat>31.57622</slat><slong>-90.45657</slong><sname>Tillotsons Economy Service</sname><saddress>307 Hwy 51 S</saddress><scity>Brookhaven</scity><sstate>MS</sstate><sbrand>UNBRANDED</sbrand><soctane>87 89 93</soctane></station><station><slat>34.84332</slat><slong>-88.32846</slong><sname>Burnsville Fast Stop</sname><saddress>246 Hwy 72</saddress><scity>Burnsville</scity><sstate>MS</sstate><sbrand>UNBRANDED</sbrand><soctane>87</soctane></station><station><slat>32.18708</slat><slong>-90.26202</slong><sname>Byram Gas</sname><saddress>7360 S Siwell Road</saddress><scity>Byram</scity><sstate>MS</sstate><sbrand>UNBRANDED</sbrand><soctane>87 89 93</soctane></station><station><slat>30.58595</slat><slong>-89.5451</slong><sname>Caesar's Country Store</sname><saddress>702 Bouie Rd</saddress><scity>Caesar</scity><sstate>MS</sstate><sbrand>UNBRANDED</sbrand><soctane>87</soctane></station><station><slat>33.69023</slat><slong>-88.33653</slong><sname>Cal City Grocery</sname><saddress>29 Main St.</saddress><scity>Caledonia</scity><sstate>MS</sstate><sbrand>UNBRANDED</sbrand><soctane></soctane></station><station><slat>33.62371</slat><slong>-88.33504</slong><sname>Malone's Grocery Llc</sname><saddress>1468 Caledonia-Steens Rd.</saddress><scity>Caledonia</scity><sstate>MS</sstate><sbrand>UNBRANDED</sbrand><soctane>87 91 93</soctane></station><station><slat>33.49683</slat><slong>-89.92266</slong><sname>17-82 Quick Stop</sname><saddress>19617 Us-82</saddress><scity>Carrollton</scity><sstate>MS</sstate><sbrand>UNBRANDED</sbrand><soctane>87 89 91</soctane></station><station><slat>32.43514</slat><slong>-89.3216</slong><sname>Pit Stop</sname><saddress>313 Highway 16w</saddress><scity>Carthage</scity><sstate>MS</sstate><sbrand>UNBRANDED</sbrand><soctane>87 89 92</soctane></station><station><slat>32.73567</slat><slong>-89.53753</slong><sname>Wilbanks Oil</sname><saddress>201 Hwy 35 S</saddress><scity>Carthage</scity><sstate>MS</sstate><sbrand>UNBRANDED</sbrand><soctane>87 89 91</soctane></station><station><slat>43.44774</slat><slong>-80.42902</slong><sname>Sayle Service Center</sname><saddress>Hiwy 32 West</saddress><scity>Charleston</scity><sstate>MS</sstate><sbrand>UNBRANDED</sbrand><soctane>86 88 93</soctane></station><station><slat>34.20257</slat><slong>-90.57564</slong><sname>Corner Grocery</sname><saddress>9 East Second St</saddress><scity>Clarksdale</scity><sstate>MS</sstate><sbrand>UNBRANDED</sbrand><soctane>87 89 93</soctane></station><station><slat>34.19629</slat><slong>-90.5579</slong><sname>Rankin Oil Company</sname><saddress>1505 State Street</saddress><scity>Clarksdale</scity><sstate>MS</sstate><sbrand>UNBRANDED</sbrand><soctane>87 89 93</soctane></station><station><slat>42.85245</slat><slong>-81.4327</slong><sname>Q Stop</sname><saddress>49 North &amp; Ora</saddress><scity>Collins</scity><sstate>MS</sstate><sbrand>PURE</sbrand><soctane>87</soctane></station><station><slat>33.52834</slat><slong>-88.42923</slong><sname>B-Quick</sname><saddress>635 31st Ave N</saddress><scity>Columbus</scity><sstate>MS</sstate><sbrand>UNBRANDED</sbrand><soctane>87 89 92</soctane></station><station><slat>33.56791</slat><slong>-88.43838</slong><sname>Pure Highway 373</sname><saddress>220 Mississippi 373</saddress><scity>Columbus</scity><sstate>MS</sstate><sbrand>PURE</sbrand><soctane>87 89 91</soctane></station><station><slat>33.50925</slat><slong>-88.4326</slong><sname>Donut Factory Shell</sname><saddress>1214 Highway 45 N</saddress><scity>Columbus</scity><sstate>MS</sstate><sbrand>SHELL</sbrand><soctane>87 89 93</soctane></station><station><slat>33.53774</slat><slong>-88.40436</slong><sname>Penny Ridge Grocery</sname><saddress>2003 Ridge Road</saddress><scity>Columbus</scity><sstate>MS</sstate><sbrand>UNBRANDED</sbrand><soctane>87</soctane></station><station><slat>33.51127</slat><slong>-88.43328</slong><sname>Pride Pantry</sname><saddress>1500 Hwy 45 North</saddress><scity>Columbus</scity><sstate>MS</sstate><sbrand>PHILLIPS</sbrand><soctane></soctane></station><station><slat>34.92325</slat><slong>-88.54536</slong><sname>45 South Truckstop</sname><saddress>753 Highway 45</saddress><scity>Corinth</scity><sstate>MS</sstate><sbrand>UNBRANDED</sbrand><soctane>87 89 91</soctane></station><station><slat>34.91503</slat><slong>-88.43551</slong><sname>Parade Bear Mart</sname><saddress>2352 Hwy 72 E</saddress><scity>Corinth</scity><sstate>MS</sstate><sbrand>UNBRANDED</sbrand><soctane>87</soctane></station><station><slat>32.46067</slat><slong>-88.39054</slong><sname>Pure</sname><saddress>Main Street</saddress><scity>De Kalb</scity><sstate>MS</sstate><sbrand>PURE</sbrand><soctane>87</soctane></station><station><slat>31.63441</slat><slong>-89.18091</slong><sname>Joe's Service Station</sname><saddress>5185 Hiway 11 North</saddress><scity>Ellisville</scity><sstate>MS</sstate><sbrand>UNBRANDED</sbrand><soctane>87 89</soctane></station><station><slat>31.64254</slat><slong>-89.17842</slong><sname>Unknown</sname><saddress>5177 Highway 11 N</saddress><scity>Ellisville</scity><sstate>MS</sstate><sbrand>UNBRANDED</sbrand><soctane>87</soctane></station><station><slat>31.61815</slat><slong>-89.33366</slong><sname>Blackwell's One Stop</sname><saddress>2566 Hwy. 588</saddress><scity>Ellisville</scity><sstate>MS</sstate><sbrand>UNBRANDED</sbrand><soctane>87 89</soctane></station><station><slat>31.67543</slat><slong>-89.26034</slong><sname>84 Express</sname><saddress>5926 Hwy 84 West</saddress><scity>Ellisville</scity><sstate>MS</sstate><sbrand>CHEVRON</sbrand><soctane>87 89 92</soctane></station><station><slat>32.08674</slat><slong>-90.19264</slong><sname>Clear Branch Grocery</sname><saddress>1606 White Rd</saddress><scity>Florence</scity><sstate>MS</sstate><sbrand>UNBRANDED</sbrand><soctane>88</soctane></station><station><slat>32.27896</slat><slong>-90.15961</slong><sname>Waring Oil</sname><saddress>630 Highway 80 East</saddress><scity>Flowood</scity><sstate>MS</sstate><sbrand>TEXACO</sbrand><soctane>87</soctane></station><station><slat>32.35787</slat><slong>-89.47485</slong><sname>South-Side Mart</sname><saddress>749 S. Main St.</saddress><scity>Forest</scity><sstate>MS</sstate><sbrand>UNBRANDED</sbrand><soctane>87 89 93</soctane></station><station><slat>32.21849</slat><slong>-89.28335</slong><sname>Shaw's Stop And Shop</sname><saddress>Hw 80 And Hw 35</saddress><scity>Forest</scity><sstate>MS</sstate><sbrand>BP</sbrand><soctane>87 89 93</soctane></station><station><slat>34.26418</slat><slong>-88.4464</slong><sname>Dorsey Food Mart</sname><saddress>3130 Hwy 178w</saddress><scity>Fulton</scity><sstate>MS</sstate><sbrand>UNBRANDED</sbrand><soctane>87</soctane></station><station><slat>32.22234</slat><slong>-89.09714</slong><sname>Country Corner</sname><saddress>Hwy 504</saddress><scity>Garlandville</scity><sstate>MS</sstate><sbrand>UNBRANDED</sbrand><soctane>87</soctane></station><station><slat>34.87005</slat><slong>-88.42744</slong><sname>Parade</sname><saddress>2352 Hwy 72 E</saddress><scity>Glen</scity><sstate>MS</sstate><sbrand>UNBRANDED</sbrand><soctane>87</soctane></station><station><slat>49.38536</slat><slong>-121.44544</slong><sname>Brown Grocery</sname><saddress>Highway 13</saddress><scity>Good Hope(Leake County)</scity><sstate>MS</sstate><sbrand>UNBRANDED</sbrand><soctane>87</soctane></station><station><slat>33.51887</slat><slong>-90.15214</slong><sname>Delta Express</sname><saddress>212 Hwy 7s</saddress><scity>Greenwood</scity><sstate>MS</sstate><sbrand>UNBRANDED</sbrand><soctane></soctane></station><station><slat>33.769</slat><slong>-89.795</slong><sname>Tally's Discount Tobacco Mart</sname><saddress>800 Lakeview Drive</saddress><scity>Grenada</scity><sstate>MS</sstate><sbrand>UNBRANDED</sbrand><soctane>87</soctane></station><station><slat>30.3635</slat><slong>-89.0883</slong><sname>Gulfport Small Craft Harbor &amp; Fuel Dock</sname><saddress>20th Ave</saddress><scity>Gulfport</scity><sstate>MS</sstate><sbrand>VALVTECT</sbrand><soctane>91</soctane></station><station><slat>30.46981</slat><slong>-89.06962</slong><sname>Super C</sname><saddress>12515 Three Rivers Rd</saddress><scity>Gulfport</scity><sstate>MS</sstate><sbrand>UNBRANDED</sbrand><soctane>87 93</soctane></station><station><slat>30.39102</slat><slong>-89.04424</slong><sname>Eagle Energy/ Eagle Express 568</sname><saddress>568 Courthouse Rd</saddress><scity>Gulfport</scity><sstate>MS</sstate><sbrand>UNBRANDED</sbrand><soctane>87 89 91</soctane></station><station><slat>30.40923</slat><slong>-89.05167</slong><sname>Bayou View Bp</sname><saddress>66 48th St.</saddress><scity>Gulfport</scity><sstate>MS</sstate><sbrand>BP</sbrand><soctane>87 92</soctane></station><station><slat>31.34848</slat><slong>-89.33607</slong><sname>Mini Mart</sname><saddress>5326 Highway 49</saddress><scity>Hattiesburg</scity><sstate>MS</sstate><sbrand>CITGO</sbrand><soctane>87 89 93</soctane></station><station><slat>31.3161</slat><slong>-89.30521</slong><sname>Mac's Triangle Service Station</sname><saddress>301 Broadway Drive</saddress><scity>Hattiesburg</scity><sstate>MS</sstate><sbrand>TEXACO</sbrand><soctane>87</soctane></station><station><slat>31.371</slat><slong>-89.31098</slong><sname>T's Country Store</sname><saddress>Eatonville Road</saddress><scity>Hattiesburg</scity><sstate>MS</sstate><sbrand>UNBRANDED</sbrand><soctane>87</soctane></station><station><slat>31.27008</slat><slong>-89.46658</slong><sname>Stuarts Farm Supply</sname><saddress>2413 Hwy 589</saddress><scity>Hattiesburg</scity><sstate>MS</sstate><sbrand>UNBRANDED</sbrand><soctane></soctane></station><station><slat>30.48756</slat><slong>-88.51492</slong><sname>Helena Trading Post</sname><saddress>5708 Wildwood Rd</saddress><scity>Helena</scity><sstate>MS</sstate><sbrand>UNBRANDED</sbrand><soctane></soctane></station><station><slat>32.57137</slat><slong>-89.33682</slong><sname>Brent</sname><saddress>S  Texaco</saddress><scity>Inc</scity><sstate>MS</sstate><sbrand>UNBRANDED</sbrand><soctane></soctane></station><station><slat>34.93299</slat><slong>-88.17193</slong><sname>J P Coleman State Park</sname><saddress>613 Cr 321</saddress><scity>Iuka</scity><sstate>MS</sstate><sbrand>UNBRANDED</sbrand><soctane>89</soctane></station><station><slat>32.27896</slat><slong>-90.15961</slong><sname>Waring Oil Company Texaco</sname><saddress>630 Highway 80 E</saddress><scity>Jackson</scity><sstate>MS</sstate><sbrand>TEXACO</sbrand><soctane>87</soctane></station><station><slat>32.29877</slat><slong>-90.25959</slong><sname>Jasco</sname><saddress>4436 Robinson  Rd.</saddress><scity>Jackson</scity><sstate>MS</sstate><sbrand>UNBRANDED</sbrand><soctane>93</soctane></station><station><slat>32.32685</slat><slong>-90.17559</slong><sname>Ward's Medical Center Texaco</sname><saddress>2395 N. State St.</saddress><scity>Jackson</scity><sstate>MS</sstate><sbrand>TEXACO</sbrand><soctane>87</soctane></station><station><slat>32.29319</slat><slong>-90.17903</slong><sname>Jackson Ice Company</sname><saddress>607 S Jefferson Street</saddress><scity>Jackson</scity><sstate>MS</sstate><sbrand>UNBRANDED</sbrand><soctane>87 93</soctane></station><station><slat>33.03895</slat><slong>-89.57987</slong><sname>Parkway Pure Station</sname><saddress>1124 South Huntington Street</saddress><scity>Kosciusko</scity><sstate>MS</sstate><sbrand>PURE</sbrand><soctane>87 89 93</soctane></station><station><slat>30.2656</slat><slong>-89.45085</slong><sname>Kent &amp; Sue's Quick Stop</sname><saddress>7126 Lower Bay Road</saddress><scity>Lakeshore</scity><sstate>MS</sstate><sbrand>UNBRANDED</sbrand><soctane>87 89 93</soctane></station><station><slat>30.45742</slat><slong>-88.88984</slong><sname>The C Store</sname><saddress>1</saddress><scity>Lamey Bridge Road</scity><sstate>MS</sstate><sbrand>CHEVRON</sbrand><soctane>87</soctane></station><station><slat>30.4941</slat><slong>-88.86643</slong><sname>Cruthirds Country Store</sname><saddress>Daisy Vestry Rd And Brodnax Rd</saddress><scity>Latimer</scity><sstate>MS</sstate><sbrand>UNBRANDED</sbrand><soctane>87 89</soctane></station><station><slat>31.68655</slat><slong>-89.14647</slong><sname>Alliance Energy</sname><saddress>313 S 16th Ave</saddress><scity>Laurel</scity><sstate>MS</sstate><sbrand>UNBRANDED</sbrand><soctane>87 89 93</soctane></station><station><slat>31.69415</slat><slong>-89.14715</slong><sname>Alliance Energy</sname><saddress>1604 Us 84</saddress><scity>Laurel</scity><sstate>MS</sstate><sbrand>UNBRANDED</sbrand><soctane>87 89 93</soctane></station><station><slat>31.699</slat><slong>-89.038</slong><sname>Lakeside Grocery</sname><saddress>Hwy 184 East</saddress><scity>Laurel</scity><sstate>MS</sstate><sbrand>UNBRANDED</sbrand><soctane>87 92</soctane></station><station><slat>31.76976</slat><slong>-89.16654</slong><sname>Southside Curb</sname><saddress>334 Trace Road</saddress><scity>Laurel</scity><sstate>MS</sstate><sbrand>UNBRANDED</sbrand><soctane></soctane></station><station><slat>31.69748</slat><slong>-89.11815</slong><sname>Stinson's Mini-Mart</sname><saddress>838 Chantilly St</saddress><scity>Laurel</scity><sstate>MS</sstate><sbrand>PURE</sbrand><soctane>87 89 91</soctane></station><station><slat>31.69567</slat><slong>-89.13779</slong><sname>Daphne Mini Mart #2</sname><saddress>925 West 6th St.</saddress><scity>Laurel</scity><sstate>MS</sstate><sbrand>PURE</sbrand><soctane>87 89 91</soctane></station><station><slat>32.32544</slat><slong>-89.23271</slong><sname>B And M  Grocery</sname><saddress>5456 Hwy 80</saddress><scity>Lawrence</scity><sstate>MS</sstate><sbrand>UNBRANDED</sbrand><soctane>87 92</soctane></station><station><slat>34.8647</slat><slong>-89.83147</slong><sname>Dees Oil Co - Lewisburg Gas</sname><saddress>Hwy 305</saddress><scity>Lewisburg</scity><sstate>MS</sstate><sbrand>DEES</sbrand><soctane>93</soctane></station><station><slat>30.35509</slat><slong>-89.13889</slong><sname>Comeback Market</sname><saddress>536 East Railroad St.</saddress><scity>Long Beach</scity><sstate>MS</sstate><sbrand>UNBRANDED</sbrand><soctane>87 93</soctane></station><station><slat>33.10706</slat><slong>-89.05613</slong><sname>Fast Break</sname><saddress>844 South Church</saddress><scity>Louisville</scity><sstate>MS</sstate><sbrand>UNBRANDED</sbrand><soctane>87</soctane></station><station><slat>33.12933</slat><slong>-89.05524</slong><sname>North Church Service Station</sname><saddress>412 North Church Av</saddress><scity>Louisville</scity><sstate>MS</sstate><sbrand>PURE</sbrand><soctane>87 89 92</soctane></station><station><slat>33.12356</slat><slong>-89.05559</slong><sname>West Main Station</sname><saddress>320 West Main Street</saddress><scity>Louisville</scity><sstate>MS</sstate><sbrand>UNBRANDED</sbrand><soctane>87</soctane></station><station><slat>30.77649</slat><slong>-88.5981</slong><sname>Jiffy Mart And Deli</sname><saddress>2269 Hwy 63 South</saddress><scity>Lucedale</scity><sstate>MS</sstate><sbrand>UNBRANDED</sbrand><soctane>89</soctane></station><station><slat>30.9717</slat><slong>-88.5395</slong><sname>Rocky Creek Quick Stop</sname><saddress>3197a Highway 63 North</saddress><scity>Lucedale (Rocky Creek)</scity><sstate>MS</sstate><sbrand>UNBRANDED</sbrand><soctane>89</soctane></station><station><slat>30.92384</slat><slong>-89.45558</slong><sname>Kar Pit Stop</sname><saddress>28 Hillsdale-Gumpond Rd</saddress><scity>Lumberton</scity><sstate>MS</sstate><sbrand>PURE</sbrand><soctane>86 89 92</soctane></station><station><slat>33.10528</slat><slong>-88.56116</slong><sname>Shell Food Mart</sname><saddress>600 S Jefferson St</saddress><scity>Macon</scity><sstate>MS</sstate><sbrand>SHELL</sbrand><soctane>87 89 93</soctane></station><station><slat>31.14357</slat><slong>-90.46006</slong><sname>Bp</sname><saddress>120 S Cherry Street</saddress><scity>Magnolia</scity><sstate>MS</sstate><sbrand>BP</sbrand><soctane>89</soctane></station><station><slat>31.30234</slat><slong>-90.44482</slong><sname>Quinten Quick Stop</sname><saddress>8005 Highway 84 E</saddress><scity>Mccall Creek</scity><sstate>MS</sstate><sbrand>UNBRANDED</sbrand><soctane>87 89 93</soctane></station><station><slat>31.03828</slat><slong>-90.28771</slong><sname>Smith's Grocery</sname><saddress>5058 Mount Hermon Rd</saddress><scity>Mccomb</scity><sstate>MS</sstate><sbrand>UNBRANDED</sbrand><soctane>87 90</soctane></station><station><slat>30.71312</slat><slong>-89.13437</slong><sname>Mcdaniels General Merchandise</sname><saddress>488 Highway 49 North</saddress><scity>Mchenry</scity><sstate>MS</sstate><sbrand>UNBRANDED</sbrand><soctane>87 93</soctane></station><station><slat>31.88317</slat><slong>-89.76205</slong><sname>American Quick Stop</sname><saddress>1588 Simpson Hwy 149</saddress><scity>Mendenhall</scity><sstate>MS</sstate><sbrand>UNBRANDED</sbrand><soctane>87 89 93</soctane></station><station><slat>31.93172</slat><slong>-89.83326</slong><sname>Williams Full Service</sname><saddress>1719 Simpson Hwy 149</saddress><scity>Mendenhall</scity><sstate>MS</sstate><sbrand>PURE</sbrand><soctane>87 89</soctane></station><station><slat>32.36136</slat><slong>-88.69657</slong><sname>22nd Ave Shell</sname><saddress>617 22nd Ave South</saddress><scity>Meridian</scity><sstate>MS</sstate><sbrand>SHELL</sbrand><soctane>87 89 93</soctane></station><station><slat>32.36719</slat><slong>-88.67502</slong><sname>Express Lane</sname><saddress>1019 Hwy 39 N</saddress><scity>Meridian</scity><sstate>MS</sstate><sbrand>MAPLE</sbrand><soctane>87 89 92</soctane></station><station><slat>32.36588</slat><slong>-88.73404</slong><sname>College Park</sname><saddress>905 Highway 19 N</saddress><scity>Meridian</scity><sstate>MS</sstate><sbrand>UNBRANDED</sbrand><soctane>87 89 93</soctane></station><station><slat>32.38085</slat><slong>-88.68132</slong><sname>Maple Leaf</sname><saddress>2200 Hwy 39 North</saddress><scity>Meridian</scity><sstate>MS</sstate><sbrand>UNBRANDED</sbrand><soctane>87</soctane></station><station><slat>30.59364</slat><slong>-88.56312</slong><sname>Davis Quick Stop</sname><saddress>17311 Ms-63</saddress><scity>Moss Point</scity><sstate>MS</sstate><sbrand>UNBRANDED</sbrand><soctane>87 91</soctane></station><station><slat>30.48737</slat><slong>-88.51481</slong><sname>Helena Trading Post</sname><saddress>5708 Wildwood Rd</saddress><scity>Moss Point</scity><sstate>MS</sstate><sbrand>UNBRANDED</sbrand><soctane>87</soctane></station><station><slat>30.39892</slat><slong>-88.51933</slong><sname>Ann Food Market</sname><saddress>5443 Frederick St</saddress><scity>Moss Point</scity><sstate>MS</sstate><sbrand>UNBRANDED</sbrand><soctane>87 89 91</soctane></station><station><slat>31.56358</slat><slong>-91.36944</slong><sname>Zippy Foods No. 5</sname><saddress>391 Old Washington Rd.</saddress><scity>Natchez</scity><sstate>MS</sstate><sbrand>UNBRANDED</sbrand><soctane>87 89 93</soctane></station><station><slat>34.52636</slat><slong>-88.91662</slong><sname>Bb's Pit Stop</sname><saddress>1438 Hwy 30 E</saddress><scity>New Albany</scity><sstate>MS</sstate><sbrand>UNBRANDED</sbrand><soctane>87</soctane></station><station><slat>34.49582</slat><slong>-89.01609</slong><sname>Eagle</sname><saddress>302 West Bankhead</saddress><scity>New Albany</scity><sstate>MS</sstate><sbrand>UNBRANDED</sbrand><soctane>87</soctane></station><station><slat>34.37588</slat><slong>-89.51314</slong><sname>North Lamar Gas Mart(Nash)</sname><saddress>1011 North Lamar Blvd.</saddress><scity>Oxford</scity><sstate>MS</sstate><sbrand>UNBRANDED</sbrand><soctane>87</soctane></station><station><slat>34.36169</slat><slong>-89.57</slong><sname>Cocomo's Chevron</sname><saddress>2625 Jackson Ave W</saddress><scity>Oxford</scity><sstate>MS</sstate><sbrand>CHEVRON</sbrand><soctane>87</soctane></station><station><slat>30.371</slat><slong>-88.54841</slong><sname>Fast Track #14</sname><saddress>1602 Denny Ave.</saddress><scity>Pascagoula</scity><sstate>MS</sstate><sbrand>FAST</sbrand><soctane>87</soctane></station><station><slat>30.37051</slat><slong>-88.54827</slong><sname>Fastmart</sname><saddress>1602 Denny Ave</saddress><scity>Pascagoula</scity><sstate>MS</sstate><sbrand>UNBRANDED</sbrand><soctane>87</soctane></station><station><slat>30.36343</slat><slong>-88.52568</slong><sname>Coast Mini Mart</sname><saddress>2802 Chicot St</saddress><scity>Pascagoula</scity><sstate>MS</sstate><sbrand>UNBRANDED</sbrand><soctane>87 93</soctane></station><station><slat>30.38277</slat><slong>-88.53446</slong><sname>K &amp; B Kwik Stop</sname><saddress>4820 Telephone Rd</saddress><scity>Pascagoula</scity><sstate>MS</sstate><sbrand>UNBRANDED</sbrand><soctane>87</soctane></station><station><slat>30.36691</slat><slong>-88.53936</slong><sname>In &amp; Out Stop</sname><saddress>3219 14th St</saddress><scity>Pascagoula</scity><sstate>MS</sstate><sbrand>UNBRANDED</sbrand><soctane>87</soctane></station><station><slat>30.46625</slat><slong>-89.3009</slong><sname>Neco's Petroleum</sname><saddress>12342 Cable Bridge Road</saddress><scity>Pass Christian</scity><sstate>MS</sstate><sbrand>UNBRANDED</sbrand><soctane></soctane></station><station><slat>32.28349</slat><slong>-90.1142</slong><sname>Mack's Discount Tobacco</sname><saddress>Service Dr. And Barnett Dr.</saddress><scity>Pearl</scity><sstate>MS</sstate><sbrand>UNBRANDED</sbrand><soctane>85</soctane></station><station><slat>32.28241</slat><slong>-90.124</slong><sname>Raju Food Mart</sname><saddress>2890 Hwy 80e</saddress><scity>Pearl</scity><sstate>MS</sstate><sbrand>UNBRANDED</sbrand><soctane>87</soctane></station><station><slat>31.36048</slat><slong>-89.25874</slong><sname>Mini Market</sname><saddress>101 Chapell Hill Rd</saddress><scity>Petal</scity><sstate>MS</sstate><sbrand>UNBRANDED</sbrand><soctane>87</soctane></station><station><slat>31.31072</slat><slong>-89.21425</slong><sname>Sunrise Trading Post</sname><saddress>252 Sunrise Road</saddress><scity>Petal</scity><sstate>MS</sstate><sbrand>UNBRANDED</sbrand><soctane>87</soctane></station><station><slat>32.77145</slat><slong>-89.12374</slong><sname>Doug's Short Stop Inc</sname><saddress>294 W Beacon St</saddress><scity>Philadelphia</scity><sstate>MS</sstate><sbrand>SHELL</sbrand><soctane></soctane></station><station><slat>32.77074</slat><slong>-89.09247</slong><sname>Vowell'S Gas For Less</sname><saddress>595 East Main St.</saddress><scity>Philadelphia</scity><sstate>MS</sstate><sbrand>UNBRANDED</sbrand><soctane>87 89 91</soctane></station><station><slat>32.77063</slat><slong>-89.10624</slong><sname>Harold's Short Stop</sname><saddress>502 Holland Av.</saddress><scity>Philadelphia</scity><sstate>MS</sstate><sbrand>UNBRANDED</sbrand><soctane>87</soctane></station><station><slat>30.57221</slat><slong>-89.73806</slong><sname>Tj's Country Store</sname><saddress>3854 Highway 43 N</saddress><scity>Picayune</scity><sstate>MS</sstate><sbrand>UNBRANDED</sbrand><soctane></soctane></station><station><slat>30.51812</slat><slong>-89.68182</slong><sname>Hwy 11 Quick Stop</sname><saddress>804 Highway 11 South</saddress><scity>Picayune</scity><sstate>MS</sstate><sbrand>UNBRANDED</sbrand><soctane>87 89 93</soctane></station><station><slat>30.53247</slat><slong>-89.67678</slong><sname>The Pit Stop</sname><saddress>508 Highway 11 North</saddress><scity>Picayune</scity><sstate>MS</sstate><sbrand>PURE</sbrand><soctane>87 89 93</soctane></station><station><slat>32.88486</slat><slong>-89.97483</slong><sname>Tri-County Cooperative (Aal)</sname><saddress>564 Yazoo St.</saddress><scity>Pickens</scity><sstate>MS</sstate><sbrand>UNBRANDED</sbrand><soctane>87</soctane></station><station><slat>34.24811</slat><slong>-89.02009</slong><sname>Country Village Grocery</sname><saddress>348 Spur St</saddress><scity>Pontotoc</scity><sstate>MS</sstate><sbrand>UNBRANDED</sbrand><soctane>87 89 93</soctane></station><station><slat>34.22299</slat><slong>-88.9959</slong><sname>Dino Mart</sname><saddress>152 Highway 15 S</saddress><scity>Pontotoc</scity><sstate>MS</sstate><sbrand>SINCLAIR</sbrand><soctane>87 89 92</soctane></station><station><slat>30.84299</slat><slong>-89.54216</slong><sname>Logans One Stop</sname><saddress>105 Highway 11 S</saddress><scity>Poplarville</scity><sstate>MS</sstate><sbrand>UNBRANDED</sbrand><soctane>87 89 92</soctane></station><station><slat>31.13961</slat><slong>-89.37532</slong><sname>Pine Belt Oil</sname><saddress>343 Highway 589</saddress><scity>Purvis</scity><sstate>MS</sstate><sbrand>UNBRANDED</sbrand><soctane></soctane></station><station><slat>32.41706</slat><slong>-90.10634</slong><sname>Cappy's</sname><saddress>7000 Old Canton Rd.</saddress><scity>Ridgeland</scity><sstate>MS</sstate><sbrand>VALERO</sbrand><soctane>90</soctane></station><station><slat>34.72437</slat><slong>-88.94774</slong><sname>Coleman Brothers</sname><saddress>752 City Ave S</saddress><scity>Ripley</scity><sstate>MS</sstate><sbrand>UNBRANDED</sbrand><soctane>87</soctane></station><station><slat>33.52632</slat><slong>-89.56086</slong><sname>Bloodworth's 4-Way</sname><saddress>Rosebloom Road</saddress><scity>Rosebloom</scity><sstate>MS</sstate><sbrand>UNBRANDED</sbrand><soctane>86</soctane></station><station><slat>34.37957</slat><slong>-88.65588</slong><sname>Woco</sname><saddress>Hwy 363</saddress><scity>Saltillo</scity><sstate>MS</sstate><sbrand>UNBRANDED</sbrand><soctane>87</soctane></station><station><slat>34.43725</slat><slong>-89.89375</slong><sname>Sardis Food Mart</sname><saddress>600 E.Lee St.</saddress><scity>Sardis</scity><sstate>MS</sstate><sbrand>PURE</sbrand><soctane>87</soctane></station><station><slat>30.60805</slat><slong>-89.1289</slong><sname>Henry's Pit Stop</sname><saddress>22373 Pine Tree Rd</saddress><scity>Saucier</scity><sstate>MS</sstate><sbrand>PURE</sbrand><soctane>87</soctane></station><station><slat>30.54209</slat><slong>-89.24799</slong><sname>Jackies</sname><saddress>24281 Highway 53</saddress><scity>Saucier</scity><sstate>MS</sstate><sbrand>UNBRANDED</sbrand><soctane>87</soctane></station><station><slat>32.55133</slat><slong>-89.35768</slong><sname>Smith's 21 Food Plaza</sname><saddress>15364 Highway 21</saddress><scity>Sebastopol</scity><sstate>MS</sstate><sbrand>UNBRANDED</sbrand><soctane></soctane></station><station><slat>33.45407</slat><slong>-88.81674</slong><sname>Larrys Car Wash</sname><saddress>121 Hwy 12 West</saddress><scity>Starkville</scity><sstate>MS</sstate><sbrand>PURE</sbrand><soctane>87 93</soctane></station><station><slat>33.46065</slat><slong>-88.80237</slong><sname>Chucks</sname><saddress>705 University Drive</saddress><scity>Starkville</scity><sstate>MS</sstate><sbrand>PURE</sbrand><soctane>87 89 93</soctane></station><station><slat>33.47253</slat><slong>-88.76028</slong><sname>Fast Break</sname><saddress>1201 Hwy 182 W</saddress><scity>Starkville</scity><sstate>MS</sstate><sbrand>UNBRANDED</sbrand><soctane>87</soctane></station><station><slat>33.4428</slat><slong>-88.8361</slong><sname>Rackley Fuel Oil Center (Have Straight And Mixed)</sname><saddress>Intersection Of Lynn Lane And Industrial Road</saddress><scity>Starkville</scity><sstate>MS</sstate><sbrand>UNBRANDED</sbrand><soctane>87 89 92</soctane></station><station><slat>33.62236</slat><slong>-88.31314</slong><sname>Old Country Store</sname><saddress>8238 Highway 12 E</saddress><scity>Steens</scity><sstate>MS</sstate><sbrand>UNBRANDED</sbrand><soctane></soctane></station><station><slat>33.56343</slat><slong>-88.31669</slong><sname>Steens Superette</sname><saddress>2647 Steens Rd.</saddress><scity>Steens</scity><sstate>MS</sstate><sbrand>UNBRANDED</sbrand><soctane>87</soctane></station><station><slat>33.58081</slat><slong>-88.34698</slong><sname>Ole Country Store</sname><saddress>8238 Highway 12e</saddress><scity>Steens</scity><sstate>MS</sstate><sbrand>PHILLIPS</sbrand><soctane>87 89 92</soctane></station><station><slat>33.45076</slat><slong>-89.43244</slong><sname>4d Grocery &amp; Carwash</sname><saddress>4517 Us-82</saddress><scity>Stewart</scity><sstate>MS</sstate><sbrand>UNBRANDED</sbrand><soctane>87 89 91</soctane></station><station><slat>31.30588</slat><slong>-89.73653</slong><sname>Stringer Co-Op</sname><saddress>Cr 17</saddress><scity>Stringer</scity><sstate>MS</sstate><sbrand>CO-OP</sbrand><soctane>87</soctane></station><station><slat>31.35153</slat><slong>-90.60401</slong><sname>Auburn 1-Stop</sname><saddress>2177 Hwy 98 Sw</saddress><scity>Summit</scity><sstate>MS</sstate><sbrand>UNBRANDED</sbrand><soctane>87</soctane></station><station><slat>31.38247</slat><slong>-89.62773</slong><sname>44 Quick Stop</sname><saddress>965 Old Salt Road</saddress><scity>Sumrall</scity><sstate>MS</sstate><sbrand>UNBRANDED</sbrand><soctane>87</soctane></station><station><slat>32.08526</slat><slong>-90.36444</slong><sname>Midway Food Mart</sname><saddress>17123 Midway Rd</saddress><scity>Terry</scity><sstate>MS</sstate><sbrand>UNBRANDED</sbrand><soctane>87</soctane></station><station><slat>34.64034</slat><slong>-88.232</slong><sname>Pattie's One Stop</sname><saddress>1103 Highway 25</saddress><scity>Tishomingo</scity><sstate>MS</sstate><sbrand>CITGO</sbrand><soctane>87 93</soctane></station><station><slat>34.32367</slat><slong>-88.62384</slong><sname>Kirbys # 2</sname><saddress>1241 Road 931</saddress><scity>Tupelo</scity><sstate>MS</sstate><sbrand>UNBRANDED</sbrand><soctane>87 92</soctane></station><station><slat>34.1501</slat><slong>-88.3911</slong><sname>Kirby's # 3</sname><saddress>1074 N. Eason Blvd</saddress><scity>Tupelo</scity><sstate>MS</sstate><sbrand>UNBRANDED</sbrand><soctane>87 92</soctane></station><station><slat>34.32446</slat><slong>-88.57592</slong><sname>Hardin's Country Store</sname><saddress>1023 Cr 1498</saddress><scity>Tupelo</scity><sstate>MS</sstate><sbrand>UNBRANDED</sbrand><soctane>87 89 93</soctane></station><station><slat>34.25663</slat><slong>-88.67923</slong><sname>West End Grocery</sname><saddress>110 Hwy 6</saddress><scity>Tupelo</scity><sstate>MS</sstate><sbrand>UNBRANDED</sbrand><soctane>87 89 93</soctane></station><station><slat>34.26968</slat><slong>-88.80787</slong><sname>Chesterville Grocery</sname><saddress>412 Chesterville Road</saddress><scity>Tupelo</scity><sstate>MS</sstate><sbrand>UNBRANDED</sbrand><soctane>87 89 93</soctane></station><station><slat>34.34222</slat><slong>-88.81193</slong><sname>Belden Grocery</sname><saddress>3897 Mccullough Blvd.</saddress><scity>Tupelo</scity><sstate>MS</sstate><sbrand>UNBRANDED</sbrand><soctane>87 89</soctane></station><station><slat>31.11808</slat><slong>-90.15559</slong><sname>Magee's Auto &amp;Detail Service</sname><saddress>115 Beulah Ave.</saddress><scity>Tylertown</scity><sstate>MS</sstate><sbrand>PURE</sbrand><soctane>87 89 91</soctane></station><station><slat>34.26464</slat><slong>-88.70367</slong><sname>Truhitts</sname><saddress>109 Jackson Rd</saddress><scity>Union</scity><sstate>MS</sstate><sbrand>UNBRANDED</sbrand><soctane></soctane></station><station><slat>32.3237</slat><slong>-90.8352</slong><sname>Oak Park Bestway</sname><saddress>6110 Indiana Avenue</saddress><scity>Vicksburg</scity><sstate>MS</sstate><sbrand>CLARK</sbrand><soctane>87</soctane></station><station><slat>32.37547</slat><slong>-90.87055</slong><sname>Port Mart</sname><saddress>1775 N Washington</saddress><scity>Vicksburg</scity><sstate>MS</sstate><sbrand>TEXACO</sbrand><soctane>87</soctane></station><station><slat>32.34391</slat><slong>-90.83549</slong><sname>Bg Jr</sname><saddress>4110 East Clay St</saddress><scity>Vicksburg</scity><sstate>MS</sstate><sbrand>TEXACO</sbrand><soctane>87</soctane></station><station><slat>30.64085</slat><slong>-88.56713</slong><sname>Wade Quick Stop</sname><saddress>20600 Ms-63</saddress><scity>Wade</scity><sstate>MS</sstate><sbrand>UNBRANDED</sbrand><soctane>87 89 93</soctane></station><station><slat>34.1592</slat><slong>-89.63177</slong><sname>Local</sname><saddress>114 Wise St.</saddress><scity>Water Valley</scity><sstate>MS</sstate><sbrand>UNBRANDED</sbrand><soctane>87</soctane></station><station><slat>31.70667</slat><slong>-90.38851</slong><sname>Eastend Market</sname><saddress>1187 E Railroad Street</saddress><scity>Wesson</scity><sstate>MS</sstate><sbrand>UNBRANDED</sbrand><soctane>87</soctane></station><station><slat>31.73565</slat><slong>-90.44637</slong><sname>Country Junction Truck Stop</sname><saddress>I-55/Sylvarena Rd.</saddress><scity>Wesson</scity><sstate>MS</sstate><sbrand>UNBRANDED</sbrand><soctane>87</soctane></station><station><slat>33.59794</slat><slong>-88.63321</slong><sname>Robin Hood's</sname><saddress>746 S Eshman Avenue</saddress><scity>West Point</scity><sstate>MS</sstate><sbrand>CHEVRON</sbrand><soctane></soctane></station><station><slat>33.59779</slat><slong>-88.64561</slong><sname>B'Quick</sname><saddress>506 E Brame Ave</saddress><scity>West Point</scity><sstate>MS</sstate><sbrand>UNBRANDED</sbrand><soctane>87 89 92</soctane></station><station><slat>30.8669</slat><slong>-89.14442</slong><sname>Jj's</sname><saddress>720 N. Magnolia Dr.</saddress><scity>Wiggins</scity><sstate>MS</sstate><sbrand>UNBRANDED</sbrand><soctane></soctane></station><station><slat>30.85187</slat><slong>-89.13374</slong><sname>Parker's Service Center</sname><saddress>419 East Central Avenue</saddress><scity>Wiggins</scity><sstate>MS</sstate><sbrand>UNBRANDED</sbrand><soctane>87 89 92</soctane></station><station><slat>32.85651</slat><slong>-90.43082</slong><sname>Scott Petroleum</sname><saddress>555 Haley Barbour Parkway</saddress><scity>Yazoo City</scity><sstate>MS</sstate><sbrand>UNBRANDED</sbrand><soctane>89</soctane></station></stations>