<?xml version='1.0'?><stations><station><slat>46.09269</slat><slong>-64.69293</slong><sname>Dieppe Co-Op Ltd.</sname><saddress>615 Dieppe Blvd.</saddress><scity>Dieppe</scity><sstate>NB</sstate><sbrand>CO-OP</sbrand><soctane>91</soctane></station><station><slat>46.99786</slat><slong>-65.57046</slong><sname>Scholten's Groceries</sname><saddress>447 King George Hwy</saddress><scity>Miramichi</scity><sstate>NB</sstate><sbrand>ESSO</sbrand><soctane>87 89 91</soctane></station><station><slat>46.10956</slat><slong>-64.82339</slong><sname>Co-Op Gas Bar</sname><saddress>90 Mapleton Road</saddress><scity>Moncton</scity><sstate>NB</sstate><sbrand>CO-OP</sbrand><soctane>91</soctane></station><station><slat>46.0959</slat><slong>-64.80375</slong><sname>Co-Op Atlantic Service Station</sname><saddress>14 Wilbur St.</saddress><scity>Moncton</scity><sstate>NB</sstate><sbrand>CO-OP</sbrand><soctane>91</soctane></station><station><slat>46.07448</slat><slong>-64.76456</slong><sname>Petro Canada</sname><saddress>500 Hillsborough Road</saddress><scity>Riverview</scity><sstate>NB</sstate><sbrand>UNBRANDED</sbrand><soctane>87 89 91</soctane></station><station><slat>46.053</slat><slong>-66.93</slong><sname>Zealand Convenience</sname><saddress>1440 Route 104</saddress><scity>Zealand</scity><sstate>NB</sstate><sbrand>UNBRANDED</sbrand><soctane>87</soctane></station></stations>