<?xml version='1.0'?><stations><station><slat>48.1161</slat><slong>-98.86525</slong><sname>Schwan Oil Co.</sname><saddress>803 College Dr. North</saddress><scity>Devils Lake</scity><sstate>ND</sstate><sbrand>SINCLAIR</sbrand><soctane>87 89 91</soctane></station><station><slat>48.1024</slat><slong>-98.86483</slong><sname>Gas Depot</sname><saddress>130 Highway 2 West</saddress><scity>Devils Lake</scity><sstate>ND</sstate><sbrand>SINCLAIR</sbrand><soctane>87 89 91</soctane></station><station><slat>46.87617</slat><slong>-96.84406</slong><sname>Simonson</sname><saddress>3810 Main Avenue</saddress><scity>Fargo</scity><sstate>ND</sstate><sbrand>SIMONSON</sbrand><soctane>87 91</soctane></station><station><slat>46.5043</slat><slong>-96.499</slong><sname>Loaf'n Jug</sname><saddress>2201 18 St S</saddress><scity>Fargo</scity><sstate>ND</sstate><sbrand>UNBRANDED</sbrand><soctane>87</soctane></station><station><slat>46.5159</slat><slong>-96.5141</slong><sname>Petro Serve Usa</sname><saddress>4440 9th Ave S</saddress><scity>Fargo</scity><sstate>ND</sstate><sbrand>PETRO</sbrand><soctane>87 91</soctane></station><station><slat>46.86198</slat><slong>-96.86768</slong><sname>Sam's Club</sname><saddress>4831 13th Avenue Sw</saddress><scity>Fargo</scity><sstate>ND</sstate><sbrand>SAM'S</sbrand><soctane>87</soctane></station><station><slat>47.90807</slat><slong>-97.04502</slong><sname>Simonson</sname><saddress>1402 South Washington St</saddress><scity>Grand Forks</scity><sstate>ND</sstate><sbrand>SIMONSON</sbrand><soctane>87 91</soctane></station><station><slat>47.93312</slat><slong>-97.04518</slong><sname>Simonson</sname><saddress>310 Gateway Drive</saddress><scity>Grand Forks</scity><sstate>ND</sstate><sbrand>SIMONSON</sbrand><soctane>87 91</soctane></station><station><slat>47.93308</slat><slong>-97.09614</slong><sname>Simonson</sname><saddress>4720 Gateway Drive</saddress><scity>Grand Forks</scity><sstate>ND</sstate><sbrand>SIMONSON</sbrand><soctane>87 91</soctane></station><station><slat>47.94605</slat><slong>-97.17593</slong><sname>Grand Forks Airport Fuel Depot</sname><saddress>2583-2619 Airport Dr</saddress><scity>Grand Forks</scity><sstate>ND</sstate><sbrand>UNBRANDED</sbrand><soctane>87</soctane></station><station><slat>47.93305</slat><slong>-97.09088</slong><sname>Loaf And Jug Convenience Store</sname><saddress>4326 Gateway Drive</saddress><scity>Grand Forks</scity><sstate>ND</sstate><sbrand>LOAF</sbrand><soctane>87 91</soctane></station><station><slat>47.92228</slat><slong>-97.08872</slong><sname>Loaf And Jug Convenience Store</sname><saddress>4250 University Ave</saddress><scity>Grand Forks</scity><sstate>ND</sstate><sbrand>LOAF</sbrand><soctane>87 91</soctane></station><station><slat>47.89638</slat><slong>-97.06627</slong><sname>Valley Dairy</sname><saddress>2452 S Columbia Road</saddress><scity>Grand Forks</scity><sstate>ND</sstate><sbrand>VALLEY</sbrand><soctane>87</soctane></station><station><slat>47.403</slat><slong>-97.07</slong><sname>Stop-N-Go</sname><saddress>520 W. Caledonia</saddress><scity>Hillsboro</scity><sstate>ND</sstate><sbrand>TESORO</sbrand><soctane>92</soctane></station><station><slat>47.49779</slat><slong>-97.32217</slong><sname>Mayville Tesoro</sname><saddress>217 Se 3rd</saddress><scity>Mayville</scity><sstate>ND</sstate><sbrand>TESORO</sbrand><soctane>87 91</soctane></station><station><slat>48.23644</slat><slong>-101.28975</slong><sname>Enerbase</sname><saddress>215 E Central Ave</saddress><scity>Minot</scity><sstate>ND</sstate><sbrand>CENEX</sbrand><soctane>87</soctane></station><station><slat>46.26389</slat><slong>-96.60125</slong><sname>Simonson</sname><saddress>124 Dakota Ave</saddress><scity>Wahpeton</scity><sstate>ND</sstate><sbrand>SIMONSON</sbrand><soctane>87</soctane></station><station><slat>46.87673</slat><slong>-96.9065</slong><sname>Dan's Oil</sname><saddress>413 Main Avenue West</saddress><scity>West Fargo</scity><sstate>ND</sstate><sbrand>PETRO</sbrand><soctane>91</soctane></station><station><slat>48.16077</slat><slong>-103.62575</slong><sname>Sinclair</sname><saddress>1720 2nd Ave. W</saddress><scity>Williston</scity><sstate>ND</sstate><sbrand>SINCLAIR</sbrand><soctane>87 91</soctane></station></stations>