<?xml version='1.0'?><stations><station><slat>44.62952</slat><slong>-123.05234</slong><sname>Carson Chevron Food Mart</sname><saddress>4175 Santiam Hwy Se</saddress><scity>Albany</scity><sstate>OR</sstate><sbrand>CHEVRON</sbrand><soctane>92</soctane></station><station><slat>44.62542</slat><slong>-123.10902</slong><sname>Courtesy Corner Shell</sname><saddress>1515 Calapooia St. Sw</saddress><scity>Albany</scity><sstate>OR</sstate><sbrand>SHELL</sbrand><soctane>91</soctane></station><station><slat>42.22716</slat><slong>-122.74234</slong><sname>Ashland Pacific Pride Cardlock</sname><saddress>120 Lowe Rd</saddress><scity>Ashland</scity><sstate>OR</sstate><sbrand>PACIFIC</sbrand><soctane>92</soctane></station><station><slat>44.77815</slat><slong>-117.83263</slong><sname>Black Distributing</sname><saddress>2150 Broadway St</saddress><scity>Baker City</scity><sstate>OR</sstate><sbrand>UNION</sbrand><soctane></soctane></station><station><slat>44.78171</slat><slong>-117.82222</slong><sname>Humbles Car Wash</sname><saddress>2500 Cedar St.</saddress><scity>Baker City</scity><sstate>OR</sstate><sbrand>SINCLAIR</sbrand><soctane>91</soctane></station><station><slat>45.62154</slat><slong>-123.11407</slong><sname>Sheldon Oil Banks</sname><saddress>182 N Main St.</saddress><scity>Banks</scity><sstate>OR</sstate><sbrand>UNBRANDED</sbrand><soctane>87</soctane></station><station><slat>45.48452</slat><slong>-122.78313</slong><sname>Carson Oil Company</sname><saddress>4955 Sw Western Ave.</saddress><scity>Beaverton</scity><sstate>OR</sstate><sbrand>CFN</sbrand><soctane>92</soctane></station><station><slat>43.99242</slat><slong>-121.33607</slong><sname>Riverwoods Country Store</sname><saddress>19745 Baker Rd</saddress><scity>Bend</scity><sstate>OR</sstate><sbrand>UNBRANDED</sbrand><soctane>92</soctane></station><station><slat>44.07716</slat><slong>-121.0187</slong><sname>Alfalfa Market Store</sname><saddress>26161 Willard Road</saddress><scity>Bend</scity><sstate>OR</sstate><sbrand>UNBRANDED</sbrand><soctane>91</soctane></station><station><slat>44.02921</slat><slong>-121.30813</slong><sname>Butler Market Store</sname><saddress>61396 Se 3rd St</saddress><scity>Bend</scity><sstate>OR</sstate><sbrand>UNBRANDED</sbrand><soctane>91</soctane></station><station><slat>44.07623</slat><slong>-121.29536</slong><sname>Quickway Market</sname><saddress>690 Ne Butler Mkt. Rd</saddress><scity>Bend</scity><sstate>OR</sstate><sbrand>UNBRANDED</sbrand><soctane>91</soctane></station><station><slat>44.06141</slat><slong>-121.30253</slong><sname>Red Carpet Car</sname><saddress>1144 Ne 3rd Street</saddress><scity>Bend</scity><sstate>OR</sstate><sbrand>SHELL</sbrand><soctane>91</soctane></station><station><slat>45.43192</slat><slong>-122.37199</slong><sname>C F N Boring</sname><saddress>28300 Se Hwy 212</saddress><scity>Boring</scity><sstate>OR</sstate><sbrand>CFN</sbrand><soctane>92</soctane></station><station><slat>42.05188</slat><slong>-124.28778</slong><sname>Colvin Oil Co</sname><saddress># 820 Railroad Ave</saddress><scity>Brookings</scity><sstate>OR</sstate><sbrand>COLVIN</sbrand><soctane>92</soctane></station><station><slat>45.2591</slat><slong>-122.69799</slong><sname>Pacific Pride (Ernie Graham Oil)</sname><saddress>640 Sw 2nd Ave</saddress><scity>Canby</scity><sstate>OR</sstate><sbrand>UNBRANDED</sbrand><soctane>92</soctane></station><station><slat>44.3887</slat><slong>-118.94898</slong><sname>Jackson's Mini Station</sname><saddress>133 N Washington</saddress><scity>Canyon City</scity><sstate>OR</sstate><sbrand>SHELL</sbrand><soctane>91</soctane></station><station><slat>42.9318</slat><slong>-123.28053</slong><sname>Penny Pincher</sname><saddress>385 North Main Street</saddress><scity>Canyonville</scity><sstate>OR</sstate><sbrand>UNBRANDED</sbrand><soctane>91</soctane></station><station><slat>45.29529</slat><slong>-123.17965</slong><sname>Carlton Corners</sname><saddress>150 N. Yamhill Street</saddress><scity>Carlton</scity><sstate>OR</sstate><sbrand>UNBRANDED</sbrand><soctane>92</soctane></station><station><slat>42.39486</slat><slong>-122.8836</slong><sname>Hays Cfn Cardlock</sname><saddress>191 Bateman Drive</saddress><scity>Central Point</scity><sstate>OR</sstate><sbrand>CFN</sbrand><soctane>92</soctane></station><station><slat>44.1881</slat><slong>-123.45365</slong><sname>Low Pass Market</sname><saddress>22501 Highway 36</saddress><scity>Cheshire</scity><sstate>OR</sstate><sbrand>UNBRANDED</sbrand><soctane>92</soctane></station><station><slat>44.1371</slat><slong>-123.04233</slong><sname>Fuel-N-Go</sname><saddress>33100 Van Duyn Road</saddress><scity>Coburg</scity><sstate>OR</sstate><sbrand>UNBRANDED</sbrand><soctane>92</soctane></station><station><slat>43.35183</slat><slong>-124.22427</slong><sname>Englewood Market</sname><saddress>1434 Southwest Boulevard</saddress><scity>Coos Bay</scity><sstate>OR</sstate><sbrand>UNBRANDED</sbrand><soctane></soctane></station><station><slat>43.36454</slat><slong>-124.19007</slong><sname>Tnt Market</sname><saddress>899 D Street</saddress><scity>Coos Bay</scity><sstate>OR</sstate><sbrand>UNBRANDED</sbrand><soctane></soctane></station><station><slat>44.5758</slat><slong>-123.27555</slong><sname>Towne Pump</sname><saddress>820 Nw Kings Blvd</saddress><scity>Corvallis</scity><sstate>OR</sstate><sbrand>TOWN</sbrand><soctane>91</soctane></station><station><slat>44.55262</slat><slong>-123.26538</slong><sname>Oberson Oil</sname><saddress>South 3rd Street</saddress><scity>Corvallis</scity><sstate>OR</sstate><sbrand>PACIFIC</sbrand><soctane>92</soctane></station><station><slat>43.80007</slat><slong>-123.03475</slong><sname>Welt &amp; Welt Inc.</sname><saddress>290 Palmer Ave</saddress><scity>Cottage Grove</scity><sstate>OR</sstate><sbrand>UNBRANDED</sbrand><soctane>92</soctane></station><station><slat>44.51928</slat><slong>-121.3206</slong><sname>Lake Chinook Village Store</sname><saddress>Sw Jordan Road</saddress><scity>Culver / Lake Billy Chinook</scity><sstate>OR</sstate><sbrand>UNBRANDED</sbrand><soctane>92</soctane></station><station><slat>44.92962</slat><slong>-123.31204</slong><sname>Lee's Auto Service</sname><saddress>120 E. Ellendale</saddress><scity>Dallas</scity><sstate>OR</sstate><sbrand>UNBRANDED</sbrand><soctane>91</soctane></station><station><slat>44.74099</slat><slong>-122.14981</slong><sname>River's Run</sname><saddress>105 Breitenbush Road</saddress><scity>Detroit</scity><sstate>OR</sstate><sbrand>UNBRANDED</sbrand><soctane>92</soctane></station><station><slat>45.5657</slat><slong>-117.91328</slong><sname>O&amp;M Gas And Groceries</sname><saddress>395 Albany St</saddress><scity>Elgin</scity><sstate>OR</sstate><sbrand>UNBRANDED</sbrand><soctane>91</soctane></station><station><slat>43.63738</slat><slong>-123.56834</slong><sname>Elkton Station</sname><saddress>14940 State Highway 38</saddress><scity>Elkton</scity><sstate>OR</sstate><sbrand>UNBRANDED</sbrand><soctane>93</soctane></station><station><slat>44.05425</slat><slong>-123.11832</slong><sname>Northwest Solvents</sname><saddress>509 Chambers Street</saddress><scity>Eugene</scity><sstate>OR</sstate><sbrand>UNBRANDED</sbrand><soctane>92</soctane></station><station><slat>44.05895</slat><slong>-123.11361</slong><sname>Tyree Oil</sname><saddress>1355 W 1st</saddress><scity>Eugene</scity><sstate>OR</sstate><sbrand>UNBRANDED</sbrand><soctane>92</soctane></station><station><slat>44.07135</slat><slong>-123.1436</slong><sname>Curtis Serve And Save (Farwest Solvents)</sname><saddress>885 Highway 99n</saddress><scity>Eugene</scity><sstate>OR</sstate><sbrand>UNBRANDED</sbrand><soctane>92</soctane></station><station><slat>43.94472</slat><slong>-124.10867</slong><sname>Abhi's One Stop Market</sname><saddress>85039 Highway 101</saddress><scity>Florence</scity><sstate>OR</sstate><sbrand>UNBRANDED</sbrand><soctane></soctane></station><station><slat>43.26088</slat><slong>-123.03142</slong><sname>Thunder Mountain Market</sname><saddress>6019 Little River Rd.</saddress><scity>Glide</scity><sstate>OR</sstate><sbrand>UNBRANDED</sbrand><soctane></soctane></station><station><slat>42.44877</slat><slong>-123.3228</slong><sname>Fireball Gas</sname><saddress>1044 Nw 6th Street</saddress><scity>Grants Pass</scity><sstate>OR</sstate><sbrand>UNBRANDED</sbrand><soctane>92</soctane></station><station><slat>42.42548</slat><slong>-123.32861</slong><sname>Grants Pass Pacific Pride</sname><saddress>505 Rogue River  Hwy</saddress><scity>Grants Pass</scity><sstate>OR</sstate><sbrand>PACIFIC</sbrand><soctane>92</soctane></station><station><slat>42.4234</slat><slong>-123.32126</slong><sname>U-Save Gas &amp; Tackle</sname><saddress>935 Rogue River Hwy</saddress><scity>Grants Pass</scity><sstate>OR</sstate><sbrand>UNBRANDED</sbrand><soctane>92</soctane></station><station><slat>44.8751</slat><slong>-117.108</slong><sname>Halfway Feed &amp; Seed</sname><saddress>281 S. Main</saddress><scity>Halfway</scity><sstate>OR</sstate><sbrand>UNBRANDED</sbrand><soctane>92</soctane></station><station><slat>43.85737</slat><slong>-117.60016</slong><sname>Coleman Sernice</sname><saddress>3459 Hwy 20</saddress><scity>Harper</scity><sstate>OR</sstate><sbrand>UNBRANDED</sbrand><soctane>92</soctane></station><station><slat>45.86441</slat><slong>-119.21348</slong><sname>Short Stop</sname><saddress>32553 East Punkin Center Road</saddress><scity>Hermiston</scity><sstate>OR</sstate><sbrand>UNBRANDED</sbrand><soctane>92</soctane></station><station><slat>45.84474</slat><slong>-119.29022</slong><sname>Heller &amp; Sons</sname><saddress>615 N 1st Street</saddress><scity>Hermiston</scity><sstate>OR</sstate><sbrand>UNBRANDED</sbrand><soctane>92</soctane></station><station><slat>45.41841</slat><slong>-122.99178</slong><sname>Laurel Valley Store</sname><saddress>14025 Sw Campbell Road</saddress><scity>Hillsboro</scity><sstate>OR</sstate><sbrand>UNBRANDED</sbrand><soctane>92</soctane></station><station><slat>43.58601</slat><slong>-119.05662</slong><sname>Hines Market</sname><saddress>203 Hwy 20 W</saddress><scity>Hines</scity><sstate>OR</sstate><sbrand>SINCLAIR</sbrand><soctane>94</soctane></station><station><slat>45.70013</slat><slong>-121.52369</slong><sname>Heights Fuel Stop</sname><saddress>1413 12th Street</saddress><scity>Hood River</scity><sstate>OR</sstate><sbrand>UNBRANDED</sbrand><soctane>91</soctane></station><station><slat>43.99699</slat><slong>-122.90401</slong><sname>Jasper Store</sname><saddress>36763 Jasper-Lowell Road</saddress><scity>Jasper</scity><sstate>OR</sstate><sbrand>UNBRANDED</sbrand><soctane></soctane></station><station><slat>44.40857</slat><slong>-118.95038</slong><sname>Triangle Oil</sname><saddress>706 S Canyon Blvd</saddress><scity>John Day</scity><sstate>OR</sstate><sbrand>CFN</sbrand><soctane>91</soctane></station><station><slat>44.22973</slat><slong>-123.20465</slong><sname>Jerry Brown</sname><saddress>93244 Hwy. 99</saddress><scity>Junction City</scity><sstate>OR</sstate><sbrand>CFN</sbrand><soctane>92</soctane></station><station><slat>42.20646</slat><slong>-121.71787</slong><sname>Texaco</sname><saddress>5804 S. Sixth St</saddress><scity>Klamath Falls</scity><sstate>OR</sstate><sbrand>TEXACO</sbrand><soctane>91</soctane></station><station><slat>42.21864</slat><slong>-121.77305</slong><sname>Ferrell's Fuel Network</sname><saddress>977 S Spring St</saddress><scity>Klamath Falls</scity><sstate>OR</sstate><sbrand>UNBRANDED</sbrand><soctane>87 92</soctane></station><station><slat>42.21297</slat><slong>-121.7607</slong><sname>Ezell-Suty Fuel</sname><saddress>2360 S 6th St</saddress><scity>Klamath Falls</scity><sstate>OR</sstate><sbrand>UNBRANDED</sbrand><soctane>93</soctane></station><station><slat>45.32972</slat><slong>-118.10293</slong><sname>Oak St Shell</sname><saddress>Adams Ave @ Oak St.</saddress><scity>La Grande</scity><sstate>OR</sstate><sbrand>SHELL</sbrand><soctane>92</soctane></station><station><slat>44.58461</slat><slong>-122.74429</slong><sname>Snow Peak Station</sname><saddress>41494 Lacomb Drive</saddress><scity>Lacomb</scity><sstate>OR</sstate><sbrand>UNBRANDED</sbrand><soctane></soctane></station><station><slat>45.32598</slat><slong>-118.0906</slong><sname>The Gas Station Llc</sname><saddress>1508 Adams Ave</saddress><scity>Lagrande</scity><sstate>OR</sstate><sbrand>TEXACO</sbrand><soctane>92</soctane></station><station><slat>43.70431</slat><slong>-121.47497</slong><sname>Gordy's Truck Stop</sname><saddress>17045 Whitney Rd</saddress><scity>Lapine</scity><sstate>OR</sstate><sbrand>UNBRANDED</sbrand><soctane>92</soctane></station><station><slat>44.53102</slat><slong>-122.92782</slong><sname>Lebanon State Airport (S30)</sname><saddress>1600 Airway Rd.</saddress><scity>Lebanon</scity><sstate>OR</sstate><sbrand>UNBRANDED</sbrand><soctane>91</soctane></station><station><slat>44.71397</slat><slong>-119.10368</slong><sname>Ok Garage</sname><saddress>171 West Main Street</saddress><scity>Long Creek</scity><sstate>OR</sstate><sbrand>UNBRANDED</sbrand><soctane>92</soctane></station><station><slat>43.83748</slat><slong>-123.23833</slong><sname>Lorane Family Store</sname><saddress>80301 Territorial Highway</saddress><scity>Lorane</scity><sstate>OR</sstate><sbrand>UNBRANDED</sbrand><soctane>92</soctane></station><station><slat>43.92015</slat><slong>-122.78364</slong><sname>Cg Market</sname><saddress>105 N. Moss Street</saddress><scity>Lowell</scity><sstate>OR</sstate><sbrand>UNBRANDED</sbrand><soctane>91</soctane></station><station><slat>45.10217</slat><slong>-121.04235</slong><sname>Richmond's Service</sname><saddress>511 Deschutes St</saddress><scity>Maupin</scity><sstate>OR</sstate><sbrand>CHEVRON</sbrand><soctane>92</soctane></station><station><slat>42.31811</slat><slong>-122.86502</slong><sname>Medford Fuel</sname><saddress>936 S. Central Ave</saddress><scity>Medford</scity><sstate>OR</sstate><sbrand>UNBRANDED</sbrand><soctane>92</soctane></station><station><slat>42.29302</slat><slong>-122.84318</slong><sname>Colvin Oil Company</sname><saddress>20 S. Stage Rd.</saddress><scity>Medford</scity><sstate>OR</sstate><sbrand>COLVIN</sbrand><soctane>92</soctane></station><station><slat>42.3602</slat><slong>-122.90559</slong><sname>North Medford</sname><saddress>3680 N. Pacific Hwy</saddress><scity>Medford</scity><sstate>OR</sstate><sbrand>PACIFIC</sbrand><soctane>92</soctane></station><station><slat>42.31811</slat><slong>-122.86502</slong><sname>Medford Pacific Pride Cardlock</sname><saddress>936 S. Central</saddress><scity>Medford</scity><sstate>OR</sstate><sbrand>PACIFIC</sbrand><soctane>92</soctane></station><station><slat>42.34562</slat><slong>-122.88193</slong><sname>Hays Oil Company Cfn</sname><saddress>1890 S. Pacific Hwy</saddress><scity>Medford</scity><sstate>OR</sstate><sbrand>CFN</sbrand><soctane>92</soctane></station><station><slat>42.3434</slat><slong>-122.88051</slong><sname>Spirit Station</sname><saddress>1325 Court St.</saddress><scity>Medford</scity><sstate>OR</sstate><sbrand>SPIRIT</sbrand><soctane>91</soctane></station><station><slat>44.75719</slat><slong>-122.48218</slong><sname>Santiam Quik Mart</sname><saddress>654 Nw Santiam Blvd</saddress><scity>Mill City Or 97360</scity><sstate>OR</sstate><sbrand>UNBRANDED</sbrand><soctane>92</soctane></station><station><slat>45.421</slat><slong>-122.63315</slong><sname>Olson Bros Tire Factory</sname><saddress>14115 Se Mcloughlin</saddress><scity>Milwaukie</scity><sstate>OR</sstate><sbrand>UNBRANDED</sbrand><soctane>92</soctane></station><station><slat>45.14894</slat><slong>-122.58452</slong><sname>Hobart Oil Co Llc</sname><saddress>Hobart Oil Co Llc112 Dixon Avenue</saddress><scity>Molalla</scity><sstate>OR</sstate><sbrand>UNBRANDED</sbrand><soctane></soctane></station><station><slat>44.84854</slat><slong>-123.22937</slong><sname>Pacific Highway Auto Care</sname><saddress>112 Pacific Avenue North</saddress><scity>Monmouth</scity><sstate>OR</sstate><sbrand>UNION</sbrand><soctane>87 92</soctane></station><station><slat>43.01967</slat><slong>-123.29423</slong><sname>Penny Pincher #1</sname><saddress>548 South Main Street</saddress><scity>Myrtle Creek</scity><sstate>OR</sstate><sbrand>PENNY</sbrand><soctane>92</soctane></station><station><slat>43.05228</slat><slong>-124.13034</slong><sname>Union 76/Hodge Distributor</sname><saddress>1893 Roseburg Rd.</saddress><scity>Myrtle Point</scity><sstate>OR</sstate><sbrand>UNION</sbrand><soctane>92</soctane></station><station><slat>44.61923</slat><slong>-124.04939</slong><sname>South Beach Fuel Dock</sname><saddress>2120 Southeast Marine Science Drive</saddress><scity>Newport</scity><sstate>OR</sstate><sbrand>CHEVRON</sbrand><soctane></soctane></station><station><slat>44.0578</slat><slong>-123.44823</slong><sname>Noti Market</sname><saddress>22528 Noti Loop</saddress><scity>Noti</scity><sstate>OR</sstate><sbrand>UNBRANDED</sbrand><soctane>92</soctane></station><station><slat>45.20165</slat><slong>-122.26102</slong><sname>Fisher Mill Supply</sname><saddress>20990 S. Fisher Mill Rd.</saddress><scity>Oregon City / Redland</scity><sstate>OR</sstate><sbrand>UNBRANDED</sbrand><soctane>87</soctane></station><station><slat>43.97768</slat><slong>-122.95918</slong><sname>Texaco Hwy 58</sname><saddress>35310 Hwy 58</saddress><scity>Pleasant Hill</scity><sstate>OR</sstate><sbrand>TEXACO</sbrand><soctane>91</soctane></station><station><slat>45.51426</slat><slong>-122.65756</slong><sname>Cfn.... Commercial Fueling Network</sname><saddress>1208 Se 8th</saddress><scity>Portland</scity><sstate>OR</sstate><sbrand>CHEVRON</sbrand><soctane>92</soctane></station><station><slat>45.61821</slat><slong>-122.80651</slong><sname>Fred's Marina</sname><saddress>12800 Nw Marina Way</saddress><scity>Portland</scity><sstate>OR</sstate><sbrand>UNBRANDED</sbrand><soctane>89</soctane></station><station><slat>44.24762</slat><slong>-121.02013</slong><sname>Powell Butte Country Store</sname><saddress>13673 Sw Highway 126</saddress><scity>Powell Butte</scity><sstate>OR</sstate><sbrand>UNBRANDED</sbrand><soctane>92</soctane></station><station><slat>44.28224</slat><slong>-121.17419</slong><sname>Shell</sname><saddress>722 Nw 6th St.</saddress><scity>Redmond</scity><sstate>OR</sstate><sbrand>SHELL</sbrand><soctane>91</soctane></station><station><slat>43.26228</slat><slong>-123.40431</slong><sname>River Forks Market</sname><saddress>4342 Garden Valley Road</saddress><scity>Roseburg</scity><sstate>OR</sstate><sbrand>UNBRANDED</sbrand><soctane>92</soctane></station><station><slat>43.22246</slat><slong>-123.34637</slong><sname>Ok's Auto Gas</sname><saddress>1082 Ne Stephens</saddress><scity>Roseburg</scity><sstate>OR</sstate><sbrand>OK</sbrand><soctane>93</soctane></station><station><slat>45.018</slat><slong>-123.085</slong><sname>Lincoln Store</sname><saddress>5925 Wallace Rd Nw</saddress><scity>Salem</scity><sstate>OR</sstate><sbrand>UNBRANDED</sbrand><soctane>87 92</soctane></station><station><slat>44.9312</slat><slong>-123.07654</slong><sname>Quality Gas</sname><saddress>2358 Salem Dallas Hwy Nw</saddress><scity>Salem</scity><sstate>OR</sstate><sbrand>UNBRANDED</sbrand><soctane>92</soctane></station><station><slat>44.80068</slat><slong>-122.79453</slong><sname>Marc Nelson Oil Products</sname><saddress>1977 Claxter Rd Ne</saddress><scity>Salem</scity><sstate>OR</sstate><sbrand>PACIFIC</sbrand><soctane>91</soctane></station><station><slat>45.37684</slat><slong>-122.22546</slong><sname>Shortys Corner</sname><saddress>42600 Se Hywy 26</saddress><scity>Sandy</scity><sstate>OR</sstate><sbrand>SHELL</sbrand><soctane>92</soctane></station><station><slat>44.70345</slat><slong>-122.84881</slong><sname>Clevenger's Automotive</sname><saddress>38955 Highway 226</saddress><scity>Scio</scity><sstate>OR</sstate><sbrand>UNBRANDED</sbrand><soctane></soctane></station><station><slat>45.9413</slat><slong>-123.92199</slong><sname>Jackson And Son Oil</sname><saddress>84721 Happel Lane</saddress><scity>Seaside</scity><sstate>OR</sstate><sbrand>PACIFIC</sbrand><soctane></soctane></station><station><slat>42.61587</slat><slong>-122.81118</slong><sname>Shady Cove 76</sname><saddress>21882 Hwy 62</saddress><scity>Shady Cove</scity><sstate>OR</sstate><sbrand>UNION</sbrand><soctane>92</soctane></station><station><slat>44.72403</slat><slong>-123.91805</slong><sname>Siletz Gas &amp; Mini Mart</sname><saddress>315 S. Gaither St</saddress><scity>Siletz</scity><sstate>OR</sstate><sbrand>UNBRANDED</sbrand><soctane>93</soctane></station><station><slat>44.291</slat><slong>-121.55422</slong><sname>Space Age Fuel</sname><saddress>411 W Cascade St</saddress><scity>Sisters</scity><sstate>OR</sstate><sbrand>UNBRANDED</sbrand><soctane>92</soctane></station><station><slat>44.0537</slat><slong>-122.84225</slong><sname>Mathers Market</sname><saddress>38477 Mckenzie Highway</saddress><scity>Springfield</scity><sstate>OR</sstate><sbrand>UNBRANDED</sbrand><soctane>92</soctane></station><station><slat>44.79661</slat><slong>-122.81506</slong><sname>Pacific Pride</sname><saddress>2010 W. Washington St.</saddress><scity>Stayton</scity><sstate>OR</sstate><sbrand>UNBRANDED</sbrand><soctane>92</soctane></station><station><slat>43.38779</slat><slong>-123.3127</slong><sname>Barnes Fuel Oil</sname><saddress>281 South State Street248 Calapoola St.</saddress><scity>Sutherlin</scity><sstate>OR</sstate><sbrand>UNBRANDED</sbrand><soctane></soctane></station><station><slat>44.56025</slat><slong>-123.10992</slong><sname>Wilco Farm Store</sname><saddress>33685 Hwy 99e</saddress><scity>Tangent</scity><sstate>OR</sstate><sbrand>WILCO</sbrand><soctane>92</soctane></station><station><slat>45.60311</slat><slong>-121.18722</slong><sname>Hat's 76 Fuel Stop</sname><saddress>301 West 3rd Street</saddress><scity>The Dalles</scity><sstate>OR</sstate><sbrand>UNION</sbrand><soctane>92</soctane></station><station><slat>45.5971</slat><slong>-121.14758</slong><sname>Eastside Veltex</sname><saddress>2702 E. 2nd Street</saddress><scity>The Dalles</scity><sstate>OR</sstate><sbrand>VELTEX</sbrand><soctane>91</soctane></station><station><slat>45.45609</slat><slong>-123.83258</slong><sname>Carson Oil Distributors</sname><saddress>2901 3rd Street</saddress><scity>Tillamook</scity><sstate>OR</sstate><sbrand>PACIFIC</sbrand><soctane>87 93</soctane></station><station><slat>45.40677</slat><slong>-123.82018</slong><sname>South Prairie Store</sname><saddress>6730 S Prairie Rd</saddress><scity>Tillamook</scity><sstate>OR</sstate><sbrand>UNBRANDED</sbrand><soctane>92</soctane></station><station><slat>45.5097</slat><slong>-123.86529</slong><sname>Idaville Corner Market</sname><saddress>7495 Alderbrook Road</saddress><scity>Tillamook</scity><sstate>OR</sstate><sbrand>UNBRANDED</sbrand><soctane>93</soctane></station><station><slat>45.45861</slat><slong>-123.84414</slong><sname>Tillamook Shell And Grocery</sname><saddress>15 Main Ave</saddress><scity>Tillamook</scity><sstate>OR</sstate><sbrand>SHELL</sbrand><soctane>87</soctane></station><station><slat>45.24803</slat><slong>-121.17376</slong><sname>Tygh Valley General</sname><saddress>57723 Tygh Valley Rd.</saddress><scity>Tygh Valley</scity><sstate>OR</sstate><sbrand>UNBRANDED</sbrand><soctane>92</soctane></station><station><slat>45.91701</slat><slong>-119.34472</slong><sname>Price Less Gas Inc.</sname><saddress>711 6th Street</saddress><scity>Umatilla</scity><sstate>OR</sstate><sbrand>UNBRANDED</sbrand><soctane>92</soctane></station><station><slat>43.98231</slat><slong>-117.23777</slong><sname>Vale Cenex</sname><saddress>150 Glenn St N</saddress><scity>Vale</scity><sstate>OR</sstate><sbrand>CENEX</sbrand><soctane>91</soctane></station><station><slat>45.57013</slat><slong>-117.53476</slong><sname>Goebel's</sname><saddress>504 W 1st</saddress><scity>Wallowa</scity><sstate>OR</sstate><sbrand>UNBRANDED</sbrand><soctane>92</soctane></station><station><slat>45.22819</slat><slong>-121.2694</slong><sname>Wamic Store</sname><saddress>57016 Wamic Market Rd.</saddress><scity>Wamic</scity><sstate>OR</sstate><sbrand>UNBRANDED</sbrand><soctane>91</soctane></station><station><slat>42.42731</slat><slong>-122.85354</slong><sname>White City Pacific Pride</sname><saddress>2094 Antelope Rd</saddress><scity>White City</scity><sstate>OR</sstate><sbrand>PACIFIC</sbrand><soctane>92</soctane></station><station><slat>42.42625</slat><slong>-122.85011</slong><sname>White City 76</sname><saddress>7640 Crater Lake Hwy</saddress><scity>White City</scity><sstate>OR</sstate><sbrand>UNION</sbrand><soctane>92</soctane></station><station><slat>43.67912</slat><slong>-124.18513</slong><sname>Salmon Harbor Marina</sname><saddress>100 Ork Rock Rd.</saddress><scity>Winchester Bay</scity><sstate>OR</sstate><sbrand>UNBRANDED</sbrand><soctane>92</soctane></station><station><slat>43.11688</slat><slong>-123.41492</slong><sname>Winston 76</sname><saddress>391 Sw  Main</saddress><scity>Winston</scity><sstate>OR</sstate><sbrand>UNION</sbrand><soctane>93</soctane></station><station><slat>42.69317</slat><slong>-123.39544</slong><sname>Wolf Creek 76</sname><saddress>221 Old Highway 99 S</saddress><scity>Wolf Creek</scity><sstate>OR</sstate><sbrand>UNION</sbrand><soctane>92</soctane></station><station><slat>43.59786</slat><slong>-123.28251</slong><sname>Jeremy Mcdaniel Auto Repair</sname><saddress>2560 Eagle Valley Rd.</saddress><scity>Yoncalla</scity><sstate>OR</sstate><sbrand>UNBRANDED</sbrand><soctane>92</soctane></station><station><slat>42.61586</slat><slong>-122.81121</slong><sname>Shady Cove Pridenet</sname><saddress>21882 Hwy 62</saddress><scity></scity><sstate>OR</sstate><sbrand>PACIFIC</sbrand><soctane>92</soctane></station></stations>