<?xml version='1.0'?><stations><station><slat>38.2638</slat><slong>-112.64464</slong><sname>Shell</sname><saddress>1532 South Main Street</saddress><scity>Beaver</scity><sstate>UT</sstate><sbrand>SHELL</sbrand><soctane>86 87 91</soctane></station><station><slat>40.52896</slat><slong>-111.40911</slong><sname>Silver Eagle Country Store</sname><saddress>1590 South Highway 40</saddress><scity>Heber</scity><sstate>UT</sstate><sbrand>SILVER</sbrand><soctane>91</soctane></station><station><slat>40.86115</slat><slong>-111.90018</slong><sname>Thomas Petroleum</sname><saddress>1117 North 400 East</saddress><scity>N. Salt Lake</scity><sstate>UT</sstate><sbrand>UNBRANDED</sbrand><soctane>91</soctane></station><station><slat>40.31761</slat><slong>-111.70397</slong><sname>Fast Gas</sname><saddress>1091 N. State Street</saddress><scity>Orem</scity><sstate>UT</sstate><sbrand>TESORO</sbrand><soctane>91</soctane></station><station><slat>40.74114</slat><slong>-111.86501</slong><sname>Craigs Service</sname><saddress>904 South 1300 East</saddress><scity>Salt Lake</scity><sstate>UT</sstate><sbrand>UNBRANDED</sbrand><soctane>92</soctane></station><station><slat>37.043</slat><slong>-113.55</slong><sname>Sinclair</sname><saddress>3800 (Approx) South River Road</saddress><scity>St George</scity><sstate>UT</sstate><sbrand>SINCLAIR</sbrand><soctane>91</soctane></station></stations>